[{"city":"Aleknagik","country":"United States","name":"Aleknagik / New Airport","code":"WKK","lat":59.2826004028,"lon":-158.617996216},{"city":"Honiara","country":"Solomon Islands","name":"Honiara International Airport","code":"HIR","lat":-9.428,"lon":160.054993},{"city":"Munda","country":"Solomon Islands","name":"Munda Airport","code":"MUA","lat":-8.32797,"lon":157.263},{"city":"Yaren District","country":"Nauru","name":"Nauru International Airport","code":"INU","lat":-0.547458,"lon":166.919006},{"city":"Bayanhot","country":"China","name":"Alxa Left Banner Bayanhot Airport","code":"AXF","lat":38.74831,"lon":105.58858},{"city":"Baimuru","country":"Papua New Guinea","name":"Baimuru Airport","code":"VMU","lat":-7.49686002731,"lon":144.819900513},{"city":"Buka Island","country":"Papua New Guinea","name":"Buka Airport","code":"BUA","lat":-5.4223198890686035,"lon":154.67300415039063},{"city":"Balimo","country":"Papua New Guinea","name":"Balimo Airport","code":"OPU","lat":-8.05000019073,"lon":142.932998657},{"city":"Kundiawa","country":"Papua New Guinea","name":"Chimbu Airport","code":"CMU","lat":-6.0242900848388672,"lon":144.97099304199219},{"city":"Daru","country":"Papua New Guinea","name":"Daru Airport","code":"DAU","lat":-9.08676,"lon":143.207993},{"city":"Goronka","country":"Papua New Guinea","name":"Goroka Airport","code":"GKA","lat":-6.0816898345900006,"lon":145.391998291},{"city":"Gurney","country":"Papua New Guinea","name":"Gurney Airport","code":"GUR","lat":-10.3114995956,"lon":150.333999634},{"city":"Popondetta","country":"Papua New Guinea","name":"Girua Airport","code":"PNP","lat":-8.80453968048,"lon":148.309005737},{"city":"Kimbe","country":"Papua New Guinea","name":"Hoskins Airport","code":"HKN","lat":-5.463846,"lon":150.407327},{"city":"Kerema","country":"Papua New Guinea","name":"Kerema Airport","code":"KMA","lat":-7.96361017227,"lon":145.770996094},{"city":"Kavieng","country":"Papua New Guinea","name":"Kavieng Airport","code":"KVG","lat":-2.57940006256,"lon":150.807998657},{"city":"Madang","country":"Papua New Guinea","name":"Madang Airport","code":"MAG","lat":-5.20707988739,"lon":145.789001465},{"city":"Mount Hagen","country":"Papua New Guinea","name":"Mount Hagen Kagamuga Airport","code":"HGU","lat":-5.828212,"lon":144.299412},{"city":"Mendi","country":"Papua New Guinea","name":"Mendi Airport","code":"MDU","lat":-6.14774,"lon":143.656998},{"city":"Manus Island","country":"Papua New Guinea","name":"Momote Airport","code":"MAS","lat":-2.06189,"lon":147.423996},{"city":"Lae","country":"Papua New Guinea","name":"Nadzab Airport","code":"LAE","lat":-6.569803,"lon":146.725977},{"city":"Port Moresby","country":"Papua New Guinea","name":"Port Moresby Jacksons International Airport","code":"POM","lat":-9.4433803558349609,"lon":147.22000122070313},{"city":"Kokopo","country":"Papua New Guinea","name":"Tokua Airport","code":"RAB","lat":-4.34046,"lon":152.380005},{"city":"Vanimo","country":"Papua New Guinea","name":"Vanimo Airport","code":"VAI","lat":-2.6926,"lon":141.3028},{"city":"Wapenamanda","country":"Papua New Guinea","name":"Wapenamanda Airport","code":"WBM","lat":-5.635293,"lon":143.892231},{"city":"Wewak","country":"Papua New Guinea","name":"Wewak International Airport","code":"WWK","lat":-3.58383011818,"lon":143.669006348},{"city":"Aasiaat","country":"Greenland","name":"Aasiaat Airport","code":"JEG","lat":68.721802,"lon":-52.784698},{"city":"Narsarsuaq","country":"Greenland","name":"Narsarsuaq Airport","code":"UAK","lat":61.1605,"lon":-45.425999},{"city":"Nuuk","country":"Greenland","name":"Nuuk Airport","code":"GOH","lat":64.191066,"lon":-51.67914},{"city":"Ilulissat","country":"Greenland","name":"Ilulissat Airport","code":"JAV","lat":69.243202,"lon":-51.057098},{"city":"Kulusuk","country":"Greenland","name":"Kulusuk Airport","code":"KUS","lat":65.573601,"lon":-37.1236},{"city":"Kangerlussuaq","country":"Greenland","name":"Kangerlussuaq Airport","code":"SFJ","lat":67.010446,"lon":-50.715294},{"city":"Sisimiut","country":"Greenland","name":"Sisimiut Airport","code":"JHS","lat":66.951302,"lon":-53.729301},{"city":"Pituffik","country":"Greenland","name":"Pituffik Space Base","code":"THU","lat":76.531197,"lon":-68.703201},{"city":"Akureyri","country":"Iceland","name":"Akureyri Airport","code":"AEY","lat":65.656573,"lon":-18.072018},{"city":"Egilsstaðir","country":"Iceland","name":"Egilsstaðir Airport","code":"EGS","lat":65.2833023071289,"lon":-14.401399612426758},{"city":"Höfn","country":"Iceland","name":"Hornafjörður Airport","code":"HFN","lat":64.295601,"lon":-15.2272},{"city":"Húsavík","country":"Iceland","name":"Húsavík Airport","code":"HZK","lat":65.952301,"lon":-17.426001},{"city":"Ísafjörður","country":"Iceland","name":"Ísafjörður Airport","code":"IFJ","lat":66.058098,"lon":-23.1353},{"city":"Reykjavík","country":"Iceland","name":"Keflavik International Airport","code":"KEF","lat":63.985001,"lon":-22.6056},{"city":"Reykjavík","country":"Iceland","name":"Reykjavík Domestic Airport","code":"RKV","lat":64.128732,"lon":-21.93759},{"city":"Prishtina","country":"Kosovo","name":"Priština Adem Jashari International Airport","code":"PRN","lat":42.5728,"lon":21.035801},{"city":"Vitória da Conquista","country":"Brazil","name":"Glauber de Andrade Rocha Airport","code":"VDC","lat":-14.907885,"lon":-40.914804},{"city":"Caye Caulker","country":"Belize","name":"Caye Caulker Airport","code":"CUK","lat":17.735015,"lon":-88.032862},{"city":"Caye Chapel","country":"Belize","name":"Caye Chapel Airport","code":"CYC","lat":17.683792,"lon":-88.044985},{"city":"Corozal","country":"Belize","name":"Corozal Airport","code":"CZH","lat":18.3822,"lon":-88.411903},{"city":"Dangriga","country":"Belize","name":"Dangriga Airport","code":"DGA","lat":16.98251,"lon":-88.230988},{"city":"Punta Gorda","country":"Belize","name":"Punta Gorda Airport","code":"PND","lat":16.1024,"lon":-88.808296},{"city":"Sartaneja","country":"Belize","name":"Sartaneja Airport","code":"SJX","lat":18.3561,"lon":-88.130798},{"city":"San Pedro","country":"Belize","name":"John Greif II Airport","code":"SPR","lat":17.9139,"lon":-87.9711},{"city":"Belize City","country":"Belize","name":"Sir Barry Bowen Municipal Airport","code":"TZA","lat":17.517239,"lon":-88.195775},{"city":"Anahim Lake","country":"Canada","name":"Anahim Lake Airport","code":"YAA","lat":52.451501,"lon":-125.303776},{"city":"Qualicum Beach","country":"Canada","name":"Qualicum Beach Airport","code":"XQU","lat":49.337456,"lon":-124.393086},{"city":"Bella Bella","country":"Canada","name":"Bella Bella (Campbell Island) Airport","code":"ZEL","lat":52.185001,"lon":-128.156994},{"city":"Shaoguan","country":"China","name":"Shaoguan Danxia Airport","code":"HSC","lat":24.9786,"lon":113.420998},{"city":"Ji\u0027an","country":"China","name":"Jinggangshan Airport","code":"JGS","lat":26.856899,"lon":114.737},{"city":"Xigazê (Dingri)","country":"China","name":"Rikaze Dingri Airport","code":"DDR","lat":28.604567,"lon":86.798},{"city":"Tashikuergan","country":"China","name":"Tashikuergan Hongqilafu Airport","code":"HQL","lat":37.661333,"lon":75.288877},{"city":"Fort Frances","country":"Canada","name":"Fort Frances Municipal Airport","code":"YAG","lat":48.655749,"lon":-93.44349},{"city":"Sault Ste Marie","country":"Canada","name":"Sault Ste Marie Airport","code":"YAM","lat":46.483216,"lon":-84.508467},{"city":"Kasabonika","country":"Canada","name":"Kasabonika Airport","code":"XKS","lat":53.524700164794922,"lon":-88.6427993774414},{"city":"St. Anthony","country":"Canada","name":"St. Anthony Airport","code":"YAY","lat":51.391909,"lon":-56.08321},{"city":"Tofino","country":"Canada","name":"Tofino / Long Beach Airport","code":"YAZ","lat":49.079833,"lon":-125.775583},{"city":"Baie-Comeau","country":"Canada","name":"Baie-Comeau Airport","code":"YBC","lat":49.1325,"lon":-68.204399},{"city":"Bella Coola","country":"Canada","name":"Bella Coola Airport","code":"QBC","lat":52.387501,"lon":-126.596001},{"city":"Bonnyville","country":"Canada","name":"Bonnyville Airport","code":"YBY","lat":54.304199,"lon":-110.744003},{"city":"La Baie","country":"Canada","name":"CFB Bagotville / Saguenay-Bagotville Airport","code":"YBG","lat":48.331908,"lon":-70.992909},{"city":"Baker Lake","country":"Canada","name":"Baker Lake Airport","code":"YBK","lat":64.298896789600008,"lon":-96.077796936},{"city":"Campbell River","country":"Canada","name":"Campbell River Airport","code":"YBL","lat":49.950802,"lon":-125.271004},{"city":"Brandon","country":"Canada","name":"Brandon Municipal Airport","code":"YBR","lat":49.91,"lon":-99.951897},{"city":"Blanc-Sablon","country":"Canada","name":"Lourdes-de-Blanc-Sablon Airport","code":"YBX","lat":51.4436,"lon":-57.185299},{"city":"Cambridge Bay","country":"Canada","name":"Cambridge Bay Airport","code":"YCB","lat":69.1081008911,"lon":-105.138000488},{"city":"Nanaimo","country":"Canada","name":"Nanaimo Airport","code":"YCD","lat":49.05497,"lon":-123.869863},{"city":"Castlegar","country":"Canada","name":"Castlegar/West Kootenay Regional Airport","code":"YCG","lat":49.296398,"lon":-117.632004},{"city":"Charlo","country":"Canada","name":"Charlo Airport","code":"YCL","lat":47.990799,"lon":-66.330299},{"city":"Dawson City","country":"Canada","name":"Dawson City Airport","code":"YDA","lat":64.043098449707031,"lon":-139.12800598144531},{"city":"Deer Lake","country":"Canada","name":"Deer Lake Airport","code":"YDF","lat":49.2108,"lon":-57.391399},{"city":"Dauphin","country":"Canada","name":"Dauphin Barker Airport","code":"YDN","lat":51.1008,"lon":-100.052002},{"city":"Edmonton","country":"Canada","name":"Edmonton International Airport","code":"YEG","lat":53.3097,"lon":-113.580002},{"city":"Inuvik","country":"Canada","name":"Inuvik Mike Zubko Airport","code":"YEV","lat":68.304199218800008,"lon":-133.483001709},{"city":"Iqaluit","country":"Canada","name":"Iqaluit Airport","code":"YFB","lat":63.756402,"lon":-68.555801},{"city":"Fredericton","country":"Canada","name":"Fredericton Airport","code":"YFC","lat":45.868900299072266,"lon":-66.537200927734375},{"city":"Fort Simpson","country":"Canada","name":"Fort Simpson Airport","code":"YFS","lat":61.760200500488281,"lon":-121.23699951171875},{"city":"La Grande Rivière","country":"Canada","name":"La Grande Rivière Airport","code":"YGL","lat":53.625301361083984,"lon":-77.7042007446289},{"city":"Gaspé","country":"Canada","name":"Michel-Pouliot Gaspé Airport","code":"YGP","lat":48.774915,"lon":-64.481893},{"city":"Les Îles-de-la-Madeleine","country":"Canada","name":"Îles-de-la-Madeleine Airport","code":"YGR","lat":47.425242,"lon":-61.778612},{"city":"Havre-Saint-Pierre","country":"Canada","name":"Havre-Saint-Pierre Airport","code":"YGV","lat":50.281898,"lon":-63.611401},{"city":"Kuujjuarapik","country":"Canada","name":"Kuujjuarapik Airport","code":"YGW","lat":55.281898498535156,"lon":-77.765296936035156},{"city":"Hamilton","country":"Canada","name":"John C. Munro Hamilton International Airport","code":"YHM","lat":43.173599243199995,"lon":-79.934997558599989},{"city":"Montréal","country":"Canada","name":"Montréal / Saint-Hubert Metropolitan Airport","code":"YHU","lat":45.517502,"lon":-73.416901},{"city":"Hay River","country":"Canada","name":"Hay River / Merlyn Carter Airport","code":"YHY","lat":60.8396987915,"lon":-115.782997131},{"city":"Halifax","country":"Canada","name":"Halifax / Stanfield International Airport","code":"YHZ","lat":44.8807983398,"lon":-63.5085983276},{"city":"St-Augustin","country":"Canada","name":"St Augustin Airport","code":"YIF","lat":51.2117,"lon":-58.658298},{"city":"Island Lake","country":"Canada","name":"Island Lake Airport","code":"YIV","lat":53.857200622558594,"lon":-94.653602600097656},{"city":"Kamloops","country":"Canada","name":"Kamloops John Moose Fulton Field Regional Airport","code":"YKA","lat":50.703038,"lon":-120.448641},{"city":"Breslau","country":"Canada","name":"Region of Waterloo International Airport","code":"YKF","lat":43.4608,"lon":-80.378601},{"city":"Schefferville","country":"Canada","name":"Schefferville Airport","code":"YKL","lat":54.805301666259766,"lon":-66.8052978515625},{"city":"Lloydminster","country":"Canada","name":"Lloydminster Airport","code":"YLL","lat":53.3092,"lon":-110.072998},{"city":"Barrie","country":"Canada","name":"Barrie-Lake Simcoe Regional Airport","code":"YLK","lat":44.485056,"lon":-79.554663},{"city":"Kelowna","country":"Canada","name":"Kelowna International Airport","code":"YLW","lat":49.9561,"lon":-119.377998},{"city":"Fort McMurray","country":"Canada","name":"Fort McMurray Airport","code":"YMM","lat":56.653301239,"lon":-111.222000122},{"city":"Moosonee","country":"Canada","name":"Moosonee Airport","code":"YMO","lat":51.291099548339844,"lon":-80.607803344726563},{"city":"Chibougamau","country":"Canada","name":"Chapais Airport","code":"YMT","lat":49.771900177001953,"lon":-74.5280990600586},{"city":"Natashquan","country":"Canada","name":"Natashquan Airport","code":"YNA","lat":50.190114,"lon":-61.78898},{"city":"Gatineau","country":"Canada","name":"Ottawa / Gatineau Airport","code":"YND","lat":45.521702,"lon":-75.563599},{"city":"Points North Landing","country":"Canada","name":"Points North Landing Airport","code":"YNL","lat":58.276699066162109,"lon":-104.08200073242188},{"city":"High Level","country":"Canada","name":"High Level Airport","code":"YOJ","lat":58.62139892578125,"lon":-117.16500091552734},{"city":"Ottawa","country":"Canada","name":"Ottawa Macdonald-Cartier International Airport","code":"YOW","lat":45.322498,"lon":-75.669197},{"city":"Prince Albert","country":"Canada","name":"Prince Albert Glass Field","code":"YPA","lat":53.214199066199996,"lon":-105.672996521},{"city":"Peace River","country":"Canada","name":"Peace River Airport","code":"YPE","lat":56.226898,"lon":-117.446999},{"city":"Pickle Lake","country":"Canada","name":"Pickle Lake Airport","code":"YPL","lat":51.4463996887207,"lon":-90.214202880859375},{"city":"Port-Menier","country":"Canada","name":"Port-Menier Airport","code":"YPN","lat":49.836399,"lon":-64.288597},{"city":"Prince Rupert","country":"Canada","name":"Prince Rupert Airport","code":"YPR","lat":54.286098480199996,"lon":-130.445007324},{"city":"Powell River","country":"Canada","name":"Powell River Airport","code":"YPW","lat":49.834201812744141,"lon":-124.5},{"city":"Puvirnituq","country":"Canada","name":"Puvirnituq Airport","code":"YPX","lat":60.050598,"lon":-77.286903},{"city":"Fort Chipewyan","country":"Canada","name":"Fort Chipewyan Airport","code":"YPY","lat":58.7672004699707,"lon":-111.11699676513672},{"city":"Burns Lake","country":"Canada","name":"Burns Lake Airport","code":"YPZ","lat":54.3764,"lon":-125.950996},{"city":"Gravenhurst","country":"Canada","name":"Muskoka Airport","code":"YQA","lat":44.975376,"lon":-79.306546},{"city":"Quebec","country":"Canada","name":"Quebec Jean Lesage International Airport","code":"YQB","lat":46.7911,"lon":-71.393303},{"city":"The Pas","country":"Canada","name":"The Pas Airport","code":"YQD","lat":53.971401214599609,"lon":-101.09100341796875},{"city":"Windsor","country":"Canada","name":"Windsor Airport","code":"YQG","lat":42.275600433349609,"lon":-82.955596923828125},{"city":"Watson Lake","country":"Canada","name":"Watson Lake Airport","code":"YQH","lat":60.116839,"lon":-128.821993},{"city":"Kenora","country":"Canada","name":"Kenora Airport","code":"YQK","lat":49.788299560546875,"lon":-94.36309814453125},{"city":"Lethbridge","country":"Canada","name":"Lethbridge County Airport","code":"YQL","lat":49.6302986145,"lon":-112.800003052},{"city":"Moncton","country":"Canada","name":"Greater Moncton Roméo LeBlanc International Airport","code":"YQM","lat":46.112202,"lon":-64.678596},{"city":"Nakina","country":"Canada","name":"Nakina Airport","code":"YQN","lat":50.18280029296875,"lon":-86.696403503417969},{"city":"Comox","country":"Canada","name":"Comox Valley Airport / CFB Comox","code":"YQQ","lat":49.7108,"lon":-124.887001},{"city":"Regina","country":"Canada","name":"Regina International Airport","code":"YQR","lat":50.431900024414063,"lon":-104.66600036621094},{"city":"Thunder Bay","country":"Canada","name":"Thunder Bay Airport","code":"YQT","lat":48.371898651123047,"lon":-89.323898315429688},{"city":"Grande Prairie","country":"Canada","name":"Grande Prairie Airport","code":"YQU","lat":55.1796989441,"lon":-118.885002136},{"city":"Gander","country":"Canada","name":"Gander International Airport / CFB Gander","code":"YQX","lat":48.936258,"lon":-54.567719},{"city":"Sydney","country":"Canada","name":"Sydney / J.A. Douglas McCurdy Airport","code":"YQY","lat":46.1614,"lon":-60.047798},{"city":"Quesnel","country":"Canada","name":"Quesnel Airport","code":"YQZ","lat":53.026100158691406,"lon":-122.51000213623047},{"city":"Resolute Bay","country":"Canada","name":"Resolute Bay Airport","code":"YRB","lat":74.7169036865,"lon":-94.9693984985},{"city":"Roberval","country":"Canada","name":"Roberval Airport","code":"YRJ","lat":48.519665,"lon":-72.265735},{"city":"Red Lake","country":"Canada","name":"Red Lake Airport","code":"YRL","lat":51.066898345947266,"lon":-93.793098449707031},{"city":"Rankin Inlet","country":"Canada","name":"Rankin Inlet Airport","code":"YRT","lat":62.8114013672,"lon":-92.1157989502},{"city":"Sudbury","country":"Canada","name":"Sudbury Airport","code":"YSB","lat":46.625,"lon":-80.798896789550781},{"city":"Stony Rapids","country":"Canada","name":"Stony Rapids Airport","code":"YSF","lat":59.250301361083984,"lon":-105.84100341796875},{"city":"Saint John","country":"Canada","name":"Saint John Airport","code":"YSJ","lat":45.31610107421875,"lon":-65.890296936035156},{"city":"Fort Smith","country":"Canada","name":"Fort Smith Airport","code":"YSM","lat":60.020302,"lon":-111.961998},{"city":"Niagara-on-the-Lake","country":"Canada","name":"Niagara District Airport","code":"YCM","lat":43.191598,"lon":-79.171686},{"city":"Thompson","country":"Canada","name":"Thompson Airport","code":"YTH","lat":55.801101684570313,"lon":-97.86419677734375},{"city":"Timmins","country":"Canada","name":"Timmins/Victor M. Power","code":"YTS","lat":48.569698333699996,"lon":-81.376701355},{"city":"Toronto","country":"Canada","name":"Billy Bishop Toronto City Centre Airport","code":"YTZ","lat":43.627499,"lon":-79.396202},{"city":"Montréal","country":"Canada","name":"Montreal / Pierre Elliott Trudeau International Airport","code":"YUL","lat":45.467837,"lon":-73.742294},{"city":"Sanirajak","country":"Canada","name":"Hall Beach Airport","code":"YUX","lat":68.7761,"lon":-81.2425},{"city":"Rouyn-Noranda","country":"Canada","name":"Rouyn Noranda Airport","code":"YUY","lat":48.206100463867188,"lon":-78.835601806640625},{"city":"Bonaventure","country":"Canada","name":"Bonaventure Airport","code":"YVB","lat":48.071098,"lon":-65.460297},{"city":"La Ronge","country":"Canada","name":"La Ronge Airport","code":"YVC","lat":55.151401519800004,"lon":-105.262001038},{"city":"Val-d\u0027Or","country":"Canada","name":"Val-d\u0027Or Airport","code":"YVO","lat":48.0532989502,"lon":-77.7827987671},{"city":"Kuujjuaq","country":"Canada","name":"Kuujjuaq Airport","code":"YVP","lat":58.096099853515625,"lon":-68.4269027709961},{"city":"Norman Wells","country":"Canada","name":"Norman Wells Airport","code":"YVQ","lat":65.281600952148438,"lon":-126.79799652099609},{"city":"Vancouver","country":"Canada","name":"Vancouver International Airport","code":"YVR","lat":49.193901062,"lon":-123.183998108},{"city":"Wiarton","country":"Canada","name":"Wiarton Airport","code":"YVV","lat":44.7458,"lon":-81.107201},{"city":"Winnipeg","country":"Canada","name":"Winnipeg / James Armstrong Richardson International Airport","code":"YWG","lat":49.909999847399995,"lon":-97.2398986816},{"city":"Wabush","country":"Canada","name":"Wabush Airport","code":"YWK","lat":52.921901702880859,"lon":-66.8644027709961},{"city":"Williams Lake","country":"Canada","name":"Williams Lake Airport","code":"YWL","lat":52.1831016541,"lon":-122.054000854},{"city":"Cranbrook","country":"Canada","name":"Cranbrook/Canadian Rockies International Airport","code":"YXC","lat":49.610801696777,"lon":-115.78199768066},{"city":"Saskatoon","country":"Canada","name":"Saskatoon John G. Diefenbaker International Airport","code":"YXE","lat":52.170799255371094,"lon":-106.69999694824219},{"city":"Medicine Hat","country":"Canada","name":"Medicine Hat Regional Airport","code":"YXH","lat":50.018902,"lon":-110.721001},{"city":"Fort Saint John","country":"Canada","name":"Fort St John / North Peace Regional Airport","code":"YXJ","lat":56.238098,"lon":-120.739998},{"city":"Rimouski","country":"Canada","name":"Rimouski Airport","code":"YXK","lat":48.477644,"lon":-68.496323},{"city":"Sioux Lookout","country":"Canada","name":"Sioux Lookout Airport","code":"YXL","lat":50.113899230957031,"lon":-91.9052963256836},{"city":"Prince George","country":"Canada","name":"Prince George Airport","code":"YXS","lat":53.884311,"lon":-122.666554},{"city":"Terrace","country":"Canada","name":"Northwest Regional Airport Terrace-Kitimat","code":"YXT","lat":54.468498,"lon":-128.576009},{"city":"London","country":"Canada","name":"London Airport","code":"YXU","lat":43.035599,"lon":-81.1539},{"city":"Abbotsford","country":"Canada","name":"Abbotsford International Airport","code":"YXX","lat":49.025299,"lon":-122.361},{"city":"Whitehorse","country":"Canada","name":"Whitehorse / Erik Nielsen International Airport","code":"YXY","lat":60.709599,"lon":-135.067001},{"city":"North Bay","country":"Canada","name":"North Bay Jack Garland Airport","code":"YYB","lat":46.363602,"lon":-79.422798},{"city":"Calgary","country":"Canada","name":"Calgary International Airport","code":"YYC","lat":51.118822,"lon":-114.009933},{"city":"Smithers","country":"Canada","name":"Smithers Airport","code":"YYD","lat":54.824699401855469,"lon":-127.18299865722656},{"city":"Fort Nelson","country":"Canada","name":"Fort Nelson Airport","code":"YYE","lat":58.8363990784,"lon":-122.597000122},{"city":"Penticton","country":"Canada","name":"Penticton Airport","code":"YYF","lat":49.463100433349609,"lon":-119.60199737548828},{"city":"Charlottetown","country":"Canada","name":"Charlottetown Airport","code":"YYG","lat":46.290000915527344,"lon":-63.121101379394531},{"city":"Victoria","country":"Canada","name":"Victoria International Airport","code":"YYJ","lat":48.647201,"lon":-123.427792},{"city":"Lynn Lake","country":"Canada","name":"Lynn Lake Airport","code":"YYL","lat":56.863899230957031,"lon":-101.07599639892578},{"city":"Churchill","country":"Canada","name":"Churchill Airport","code":"YYQ","lat":58.739200592041016,"lon":-94.06500244140625},{"city":"Goose Bay","country":"Canada","name":"Goose Bay Airport","code":"YYR","lat":53.3191986084,"lon":-60.4258003235},{"city":"St. John\u0027s","country":"Canada","name":"St. John\u0027s International Airport","code":"YYT","lat":47.618599,"lon":-52.7519},{"city":"Mont-Joli","country":"Canada","name":"Mont Joli Airport","code":"YYY","lat":48.608600616455078,"lon":-68.208099365234375},{"city":"Toronto","country":"Canada","name":"Toronto Lester B. Pearson International Airport","code":"YYZ","lat":43.6772,"lon":-79.6306},{"city":"Yellowknife","country":"Canada","name":"Yellowknife International Airport","code":"YZF","lat":62.462799,"lon":-114.440002},{"city":"Sandspit","country":"Canada","name":"Sandspit Airport","code":"YZP","lat":53.254299163799992,"lon":-131.813995361},{"city":"Coral Harbour","country":"Canada","name":"Coral Harbour Airport","code":"YZS","lat":64.1932983398,"lon":-83.3593978882},{"city":"Port Hardy","country":"Canada","name":"Port Hardy Airport","code":"YZT","lat":50.680599212646484,"lon":-127.36699676513672},{"city":"Whitecourt","country":"Canada","name":"Whitecourt Airport","code":"YZU","lat":54.143902,"lon":-115.787003},{"city":"Sept-Îles","country":"Canada","name":"Sept-Îles Airport","code":"YZV","lat":50.223300933837891,"lon":-66.2656021118164},{"city":"South Tetagouche","country":"Canada","name":"Bathurst Airport","code":"ZBF","lat":47.6297,"lon":-65.738899},{"city":"Masset","country":"Canada","name":"Masset Airport","code":"ZMT","lat":54.0275,"lon":-132.125},{"city":"Sandy Lake","country":"Canada","name":"Sandy Lake Airport","code":"ZSJ","lat":53.064201354980469,"lon":-93.344398498535156},{"city":"Béjaïa","country":"Algeria","name":"Soummam–Abane Ramdane Airport","code":"BJA","lat":36.711952,"lon":5.069804},{"city":"Algiers","country":"Algeria","name":"Houari Boumediene Airport","code":"ALG","lat":36.693886,"lon":3.214531},{"city":"Djanet","country":"Algeria","name":"Djanet Inedbirene Airport","code":"DJG","lat":24.292801,"lon":9.45244},{"city":"Illizi","country":"Algeria","name":"Illizi Takhamalt Airport","code":"VVZ","lat":26.723499,"lon":8.62265},{"city":"Sétif","country":"Algeria","name":"Ain Arnat Airport","code":"QSF","lat":36.178100585900005,"lon":5.3244900703399995},{"city":"Tamanrasset","country":"Algeria","name":"Aguenar – Hadj Bey Akhamok Airport","code":"TMR","lat":22.811501,"lon":5.45108},{"city":"Tahir","country":"Algeria","name":"Jijel Ferhat Abbas Airport","code":"GJL","lat":36.795101,"lon":5.87361},{"city":"Annaba","country":"Algeria","name":"Annaba Rabah Bitat Airport","code":"AAE","lat":36.826781,"lon":7.81334},{"city":"Constantine","country":"Algeria","name":"Mohamed Boudiaf International Airport","code":"CZL","lat":36.2760009765625,"lon":6.6203899383544922},{"city":"Tébessi","country":"Algeria","name":"Cheikh Larbi Tébessi Airport","code":"TEE","lat":35.4315986633,"lon":8.12071990967},{"city":"Batna","country":"Algeria","name":"Batna Mostefa Ben Boulaid Airport","code":"BLJ","lat":35.752102,"lon":6.30859},{"city":"Tindouf","country":"Algeria","name":"Tindouf Airport","code":"TIN","lat":27.7003993988,"lon":-8.167099952700001},{"city":"Chlef","country":"Algeria","name":"Chlef Aboubakr Belkaid International Airport","code":"CFK","lat":36.217166,"lon":1.342237},{"city":"Zenata","country":"Algeria","name":"Zenata – Messali El Hadj Airport","code":"TLM","lat":35.013426,"lon":-1.457191},{"city":"Es-Sénia","country":"Algeria","name":"Oran Es-Sénia (Ahmed Ben Bella) International Airport","code":"ORN","lat":35.623901,"lon":-0.621183},{"city":"Béchar","country":"Algeria","name":"Béchar Boudghene Ben Ali Lotfi Airport","code":"CBH","lat":31.645700454711914,"lon":-2.2698600292205811},{"city":"Adrar","country":"Algeria","name":"Touat Cheikh Sidi Mohamed Belkebir Airport","code":"AZR","lat":27.837601,"lon":-0.186414},{"city":"Biskra","country":"Algeria","name":"Biskra - Mohamed Khider Airport","code":"BSK","lat":34.793301,"lon":5.73823},{"city":"El Menia","country":"Algeria","name":"El Golea Airport","code":"ELG","lat":30.580732,"lon":2.861595},{"city":"El Atteuf","country":"Algeria","name":"Noumérat - Moufdi Zakaria Airport","code":"GHA","lat":32.384102,"lon":3.79411},{"city":"Hassi Messaoud","country":"Algeria","name":"Hassi Messaoud-Oued Irara Krim Belkacem Airport","code":"HME","lat":31.673,"lon":6.14044},{"city":"In Salah","country":"Algeria","name":"In Salah Airport","code":"INZ","lat":27.250999,"lon":2.51202},{"city":"Touggourt","country":"Algeria","name":"Touggourt Sidi Madhi Airport","code":"TGR","lat":33.067799,"lon":6.08867},{"city":"Guemar","country":"Algeria","name":"Guemar Airport - مطار قمار بالوادي","code":"ELU","lat":33.511398,"lon":6.77679},{"city":"Timimoun","country":"Algeria","name":"Timimoun Airport","code":"TMX","lat":29.237101,"lon":0.276033},{"city":"Ouargla","country":"Algeria","name":"Ain Beida Airport","code":"OGX","lat":31.9172,"lon":5.41278},{"city":"In Aménas","country":"Algeria","name":"Zarzaitine - In Aménas Airport","code":"IAM","lat":28.0515,"lon":9.64291},{"city":"Cotonou","country":"Benin","name":"Cadjehoun Airport","code":"COO","lat":6.3572301864624023,"lon":2.384350061416626},{"city":"Ouagadougou","country":"Burkina Faso","name":"Ouagadougou Airport","code":"OUA","lat":12.3532,"lon":-1.51242},{"city":"Bobo Dioulasso","country":"Burkina Faso","name":"Bobo Dioulasso Airport","code":"BOY","lat":11.160099983215332,"lon":-4.33096981048584},{"city":"Accra","country":"Ghana","name":"Kotoka International Airport","code":"ACC","lat":5.6051898002624512,"lon":-0.16678600013256073},{"city":"Tamale","country":"Ghana","name":"Tamale Airport","code":"TML","lat":9.55718994140625,"lon":-0.86321401596069336},{"city":"Kumasi","country":"Ghana","name":"Kumasi Airport","code":"KMS","lat":6.7145600318908691,"lon":-1.5908199548721313},{"city":"Sunyani","country":"Ghana","name":"Sunyani Airport","code":"NYI","lat":7.36183,"lon":-2.32876},{"city":"Sekondi-Takoradi","country":"Ghana","name":"Takoradi Airport","code":"TKD","lat":4.8960599899291992,"lon":-1.7747600078582764},{"city":"Abidjan","country":"Côte d\u0027Ivoire","name":"Félix-Houphouët-Boigny International Airport","code":"ABJ","lat":5.26139,"lon":-3.92629},{"city":"Bouaké","country":"Côte d\u0027Ivoire","name":"Bouaké Airport","code":"BYK","lat":7.7388,"lon":-5.07367},{"city":"Korhogo","country":"Côte d\u0027Ivoire","name":"Korhogo Airport","code":"HGO","lat":9.38718,"lon":-5.55666},{"city":"","country":"Côte d\u0027Ivoire","name":"San Pedro Airport","code":"SPY","lat":4.74672,"lon":-6.66082},{"city":"Abuja","country":"Nigeria","name":"Nnamdi Azikiwe International Airport","code":"ABV","lat":9.00679,"lon":7.26317},{"city":"Uyo","country":"Nigeria","name":"Akwa Ibom International Airport","code":"QUO","lat":4.8725,"lon":8.093},{"city":"Akure","country":"Nigeria","name":"Akure Airport","code":"AKR","lat":7.2467398643493652,"lon":5.3010101318359375},{"city":"Bauchi","country":"Nigeria","name":"Sir Abubakar Tafawa Balewa International Airport","code":"BCU","lat":10.482833,"lon":9.744},{"city":"Benin","country":"Nigeria","name":"Benin Airport","code":"BNI","lat":6.3169798851013184,"lon":5.5995001792907715},{"city":"Calabar","country":"Nigeria","name":"Margaret Ekpo International Airport","code":"CBQ","lat":4.9760198593139648,"lon":8.3472003936767578},{"city":"Enegu","country":"Nigeria","name":"Akanu Ibiam International Airport","code":"ENU","lat":6.4742698669433594,"lon":7.5619602203369141},{"city":"Gombe","country":"Nigeria","name":"Gombe Lawanti International Airport","code":"GMO","lat":10.298889,"lon":10.9},{"city":"Ibadan","country":"Nigeria","name":"Ibadan Airport","code":"IBA","lat":7.3624601364135742,"lon":3.97832989692688},{"city":"Ilorin","country":"Nigeria","name":"Ilorin International Airport","code":"ILR","lat":8.4402103424072266,"lon":4.493919849395752},{"city":"Owerri","country":"Nigeria","name":"Sam Mbakwe International Airport","code":"QOW","lat":5.4270601272583008,"lon":7.2060298919677734},{"city":"Jos","country":"Nigeria","name":"Yakubu Gowon Airport","code":"JOS","lat":9.6398296356201172,"lon":8.8690500259399414},{"city":"Kaduna","country":"Nigeria","name":"Kaduna Airport","code":"KAD","lat":10.696000099182129,"lon":7.3201098442077637},{"city":"Kano","country":"Nigeria","name":"Mallam Aminu International Airport","code":"KAN","lat":12.0476,"lon":8.52462},{"city":"Maiduguri","country":"Nigeria","name":"Maiduguri International Airport","code":"MIU","lat":11.855299949645996,"lon":13.080900192260742},{"city":"Makurdi","country":"Nigeria","name":"Makurdi Airport","code":"MDI","lat":7.70388,"lon":8.61394},{"city":"Lagos","country":"Nigeria","name":"Murtala Muhammed International Airport","code":"LOS","lat":6.57737,"lon":3.32116},{"city":"Port Harcourt","country":"Nigeria","name":"Port Harcourt International Airport","code":"PHC","lat":5.0154900550842285,"lon":6.94959020614624},{"city":"Sokoto","country":"Nigeria","name":"Sadiq Abubakar III International Airport","code":"SKO","lat":12.916299819946289,"lon":5.2071900367736816},{"city":"Okpe","country":"Nigeria","name":"Warri Airport","code":"QRW","lat":5.59821,"lon":5.8187},{"city":"Yola","country":"Nigeria","name":"Yola Airport","code":"YOL","lat":9.2575502395629883,"lon":12.430399894714355},{"city":"Niamey","country":"Niger","name":"Diori Hamani International Airport","code":"NIM","lat":13.4815,"lon":2.18361},{"city":"Agadez","country":"Niger","name":"Mano Dayak International Airport","code":"AJY","lat":16.965999603271484,"lon":8.0001096725463867},{"city":"Zinder","country":"Niger","name":"Zinder Airport","code":"ZND","lat":13.779000282287598,"lon":8.983759880065918},{"city":"Tabarka","country":"Tunisia","name":"Tabarka-Aïn Draham International Airport","code":"TBJ","lat":36.98,"lon":8.87694},{"city":"Monastir","country":"Tunisia","name":"Monastir Habib Bourguiba International Airport","code":"MIR","lat":35.758098602294922,"lon":10.75469970703125},{"city":"Enfidha","country":"Tunisia","name":"Enfidha - Hammamet International Airport","code":"NBE","lat":36.075833,"lon":10.438611},{"city":"Tunis","country":"Tunisia","name":"Tunis Carthage International Airport","code":"TUN","lat":36.851002,"lon":10.2272},{"city":"Gafsa","country":"Tunisia","name":"Gafsa Ksar International Airport","code":"GAF","lat":34.422000885009766,"lon":8.8225002288818359},{"city":"Gabès","country":"Tunisia","name":"Gabès Matmata International Airport","code":"GAE","lat":33.733691,"lon":9.91941},{"city":"Mellita","country":"Tunisia","name":"Djerba Zarzis International Airport","code":"DJE","lat":33.875,"lon":10.7755},{"city":"Sfax","country":"Tunisia","name":"Sfax Thyna International Airport","code":"SFA","lat":34.717998504638672,"lon":10.690999984741211},{"city":"Tozeur","country":"Tunisia","name":"Tozeur Nefta International Airport","code":"TOE","lat":33.939701080322266,"lon":8.110560417175293},{"city":"Lomé","country":"Togo","name":"Lomé–Tokoin International Airport","code":"LFW","lat":6.16561,"lon":1.25451},{"city":"Antwerp","country":"Belgium","name":"Antwerp International Airport (Deurne)","code":"ANR","lat":51.190667,"lon":4.463153},{"city":"Zaventem","country":"Belgium","name":"Brussels Airport","code":"BRU","lat":50.901402,"lon":4.48444},{"city":"Charleroi","country":"Belgium","name":"Brussels South Charleroi Airport","code":"CRL","lat":50.460982,"lon":4.457158},{"city":"Grâce-Hollogne","country":"Belgium","name":"Liège Airport","code":"LGG","lat":50.638574,"lon":5.443897},{"city":"Oostende","country":"Belgium","name":"Oostende-Brugge International Airport","code":"OST","lat":51.1998,"lon":2.874673},{"city":"Zirchow","country":"Germany","name":"Heringsdorf Airport","code":"HDF","lat":53.8787,"lon":14.1523},{"city":"Berlin","country":"Germany","name":"Berlin Brandenburg Airport","code":"BER","lat":52.362247,"lon":13.500672},{"city":"Dresden","country":"Germany","name":"Dresden Airport","code":"DRS","lat":51.134123,"lon":13.767831},{"city":"Erfurt","country":"Germany","name":"Erfurt-Weimar Airport","code":"ERF","lat":50.979801,"lon":10.9581},{"city":"Frankfurt am Main","country":"Germany","name":"Frankfurt Airport","code":"FRA","lat":50.030241,"lon":8.561096},{"city":"Greven","country":"Germany","name":"Münster Osnabrück Airport","code":"FMO","lat":52.134602,"lon":7.68483},{"city":"Hamburg","country":"Germany","name":"Hamburg Helmut Schmidt Airport","code":"HAM","lat":53.630402,"lon":9.98823},{"city":"Köln (Cologne)","country":"Germany","name":"Cologne Bonn Airport","code":"CGN","lat":50.865898,"lon":7.14274},{"city":"Düsseldorf","country":"Germany","name":"Düsseldorf Airport","code":"DUS","lat":51.289501,"lon":6.76678},{"city":"Munich","country":"Germany","name":"Munich Airport","code":"MUC","lat":48.353802,"lon":11.7861},{"city":"Nuremberg","country":"Germany","name":"Nuremberg Airport","code":"NUE","lat":49.498699,"lon":11.078056},{"city":"Schkeuditz","country":"Germany","name":"Leipzig/Halle Airport","code":"LEJ","lat":51.420657,"lon":12.232705},{"city":"Saarbrücken","country":"Germany","name":"Saarbrücken Airport","code":"SCN","lat":49.214599609400004,"lon":7.10950994492},{"city":"Stuttgart","country":"Germany","name":"Stuttgart Airport","code":"STR","lat":48.689899,"lon":9.22196},{"city":"Hannover","country":"Germany","name":"Hannover Airport","code":"HAJ","lat":52.461102,"lon":9.68508},{"city":"Bremen","country":"Germany","name":"Bremen Airport","code":"BRE","lat":53.046786,"lon":8.78932},{"city":"Frankfurt am Main (Lautzenhausen)","country":"Germany","name":"Frankfurt-Hahn Airport","code":"HHN","lat":49.9487,"lon":7.26389},{"city":"Mannheim","country":"Germany","name":"Mannheim-City Airport","code":"MHG","lat":49.473057,"lon":8.514167},{"city":"Lübeck","country":"Germany","name":"Lübeck Blankensee Airport","code":"LBC","lat":53.805401,"lon":10.7192},{"city":"Memmingen","country":"Germany","name":"Memmingen Allgau Airport","code":"FMM","lat":47.988800048799995,"lon":10.2395000458},{"city":"Büren","country":"Germany","name":"Paderborn Lippstadt Airport","code":"PAD","lat":51.614101,"lon":8.61632},{"city":"Weeze","country":"Germany","name":"Weeze Airport","code":"NRN","lat":51.6024017334,"lon":6.14216995239},{"city":"Dortmund","country":"Germany","name":"Dortmund Airport","code":"DTM","lat":51.518299,"lon":7.61224},{"city":"Friedrichshafen","country":"Germany","name":"Friedrichshafen Airport","code":"FDH","lat":47.671299,"lon":9.51149},{"city":"Rheinmünster","country":"Germany","name":"Karlsruhe Baden-Baden Airport","code":"FKB","lat":48.7794,"lon":8.0805},{"city":"Calden","country":"Germany","name":"Kassel Airport","code":"KSF","lat":51.420699,"lon":9.392152},{"city":"Sylt","country":"Germany","name":"Westerland Sylt Airport","code":"GWT","lat":54.9132,"lon":8.34047},{"city":"Kärdla","country":"Estonia","name":"Kärdla Airport","code":"KDL","lat":58.990798950195313,"lon":22.830699920654297},{"city":"Kuressaare","country":"Estonia","name":"Kuressaare Airport","code":"URE","lat":58.229900360107422,"lon":22.509500503540039},{"city":"Pärnu","country":"Estonia","name":"Pärnu Airport","code":"EPU","lat":58.418998718261719,"lon":24.472799301147461},{"city":"Tallinn","country":"Estonia","name":"Lennart Meri Tallinn Airport","code":"TLL","lat":59.413246,"lon":24.83264},{"city":"Reola","country":"Estonia","name":"Tartu Airport","code":"TAY","lat":58.307438,"lon":26.686473},{"city":"Enontekio","country":"Finland","name":"Enontekio Airport","code":"ENF","lat":68.362602233887,"lon":23.424299240112},{"city":"Helsinki (Vantaa)","country":"Finland","name":"Helsinki Vantaa Airport","code":"HEL","lat":60.318363,"lon":24.963341},{"city":"Ivalo","country":"Finland","name":"Ivalo Airport","code":"IVL","lat":68.607299804688,"lon":27.405300140381},{"city":"Joensuu","country":"Finland","name":"Joensuu Airport","code":"JOE","lat":62.658815,"lon":29.619398},{"city":"Jyväskylän Maalaiskunta","country":"Finland","name":"Jyväskylä Airport","code":"JYV","lat":62.399502,"lon":25.678301},{"city":"Kemi / Tornio","country":"Finland","name":"Kemi-Tornio Airport","code":"KEM","lat":65.778701782227,"lon":24.582099914551},{"city":"Kajaani","country":"Finland","name":"Kajaani Airport","code":"KAJ","lat":64.2855,"lon":27.6924},{"city":"Kokkola / Kruunupyy","country":"Finland","name":"Kokkola-Pietarsaari Airport","code":"KOK","lat":63.721199,"lon":23.143101},{"city":"Kuusamo","country":"Finland","name":"Kuusamo Airport","code":"KAO","lat":65.987602,"lon":29.239401},{"city":"Kittilä","country":"Finland","name":"Kittilä Airport","code":"KTT","lat":67.700996398926,"lon":24.846799850464},{"city":"Kuopio / Siilinjärvi","country":"Finland","name":"Kuopio Airport","code":"KUO","lat":63.007099,"lon":27.7978},{"city":"Lappeenranta","country":"Finland","name":"Lappeenranta Airport","code":"LPP","lat":61.044601,"lon":28.144743},{"city":"Mariehamn","country":"Finland","name":"Mariehamn Airport","code":"MHQ","lat":60.1222,"lon":19.898199},{"city":"Oulu / Oulunsalo","country":"Finland","name":"Oulu Airport","code":"OUL","lat":64.930099,"lon":25.354601},{"city":"Pori","country":"Finland","name":"Pori Airport","code":"POR","lat":61.4617,"lon":21.799999},{"city":"Rovaniemi","country":"Finland","name":"Rovaniemi Airport","code":"RVN","lat":66.564796447754,"lon":25.830400466919},{"city":"Savonlinna","country":"Finland","name":"Savonlinna Airport","code":"SVL","lat":61.9431,"lon":28.945101},{"city":"Tampere / Pirkkala","country":"Finland","name":"Tampere-Pirkkala Airport","code":"TMP","lat":61.414101,"lon":23.604401},{"city":"Turku","country":"Finland","name":"Turku Airport","code":"TKU","lat":60.514099,"lon":22.2628},{"city":"Vaasa","country":"Finland","name":"Vaasa Airport","code":"VAA","lat":63.050701,"lon":21.762199},{"city":"Belfast","country":"United Kingdom","name":"Belfast International Airport","code":"BFS","lat":54.6575012207,"lon":-6.2158298492399995},{"city":"Belfast","country":"United Kingdom","name":"George Best Belfast City Airport","code":"BHD","lat":54.618099,"lon":-5.8725},{"city":"Derry","country":"United Kingdom","name":"City of Derry Airport","code":"LDY","lat":55.042800903320313,"lon":-7.1611099243164063},{"city":"Birmingham, West Midlands","country":"United Kingdom","name":"Birmingham Airport","code":"BHX","lat":52.453899,"lon":-1.74803},{"city":"Manchester, Greater Manchester","country":"United Kingdom","name":"Manchester Airport","code":"MAN","lat":53.349375,"lon":-2.279521},{"city":"Campbeltown","country":"United Kingdom","name":"Campbeltown Airport","code":"CAL","lat":55.437198638916016,"lon":-5.6863899230957031},{"city":"Eday","country":"United Kingdom","name":"Eday Airport","code":"EOI","lat":59.190601348876953,"lon":-2.7722198963165283},{"city":"Cardiff","country":"United Kingdom","name":"Cardiff International Airport","code":"CWL","lat":51.396702,"lon":-3.34333},{"city":"Bristol","country":"United Kingdom","name":"Bristol Airport","code":"BRS","lat":51.382702,"lon":-2.71909},{"city":"Liverpool","country":"United Kingdom","name":"Liverpool John Lennon Airport","code":"LPL","lat":53.333599,"lon":-2.84972},{"city":"Luton, Bedfordshire","country":"United Kingdom","name":"London Luton Airport","code":"LTN","lat":51.874699,"lon":-0.368333},{"city":"Bournemouth","country":"United Kingdom","name":"Bournemouth Airport","code":"BOH","lat":50.780483,"lon":-1.839576},{"city":"Southampton","country":"United Kingdom","name":"Southampton Airport","code":"SOU","lat":50.950298,"lon":-1.3568},{"city":"Newquay","country":"United Kingdom","name":"Cornwall Airport Newquay","code":"NQY","lat":50.440601,"lon":-4.99541},{"city":"Saint Anne","country":"Guernsey","name":"Alderney Airport","code":"ACI","lat":49.706104,"lon":-2.21472},{"city":"Saint Peter Port","country":"Guernsey","name":"Guernsey Airport","code":"GCI","lat":49.435001,"lon":-2.60197},{"city":"St. Peter","country":"Jersey","name":"Jersey Airport","code":"JER","lat":49.207901,"lon":-2.19551},{"city":"London","country":"United Kingdom","name":"London Gatwick Airport","code":"LGW","lat":51.148771,"lon":-0.192089},{"city":"London","country":"United Kingdom","name":"London City Airport","code":"LCY","lat":51.505299,"lon":0.055278},{"city":"London","country":"United Kingdom","name":"London Heathrow Airport","code":"LHR","lat":51.4706,"lon":-0.461941},{"city":"Southend-on-Sea, Essex","country":"United Kingdom","name":"London Southend Airport","code":"SEN","lat":51.570562,"lon":0.693627},{"city":"Grimsby, Lincolnshire","country":"United Kingdom","name":"Humberside Airport","code":"HUY","lat":53.576152,"lon":-0.34954},{"city":"Leeds, West Yorkshire","country":"United Kingdom","name":"Leeds Bradford Airport","code":"LBA","lat":53.865898,"lon":-1.66057},{"city":"Castletown","country":"Isle of Man","name":"Isle of Man Airport","code":"IOM","lat":54.083302,"lon":-4.62389},{"city":"Newcastle upon Tyne, Tyne and Wear","country":"United Kingdom","name":"Newcastle International Airport","code":"NCL","lat":55.037958,"lon":-1.689577},{"city":"Darlington, Durham","country":"United Kingdom","name":"Teesside International Airport","code":"MME","lat":54.509201,"lon":-1.42941},{"city":"Nottingham","country":"United Kingdom","name":"East Midlands Airport","code":"EMA","lat":52.8311,"lon":-1.32806},{"city":"Orkney Islands","country":"United Kingdom","name":"Kirkwall Airport","code":"KOI","lat":58.957801818847656,"lon":-2.9049999713897705},{"city":"Lerwick, Shetland","country":"United Kingdom","name":"Sumburgh Airport","code":"LSI","lat":59.878899,"lon":-1.29556},{"city":"Wick","country":"United Kingdom","name":"Wick John O\u0027Groats Airport","code":"WIC","lat":58.4589,"lon":-3.09306},{"city":"Aberdeen","country":"United Kingdom","name":"Aberdeen International Airport","code":"ABZ","lat":57.2019,"lon":-2.19778},{"city":"Inverness","country":"United Kingdom","name":"Inverness Airport","code":"INV","lat":57.542499542236328,"lon":-4.0475001335144043},{"city":"Glasgow","country":"United Kingdom","name":"Glasgow Airport","code":"GLA","lat":55.871899,"lon":-4.43306},{"city":"Edinburgh","country":"United Kingdom","name":"Edinburgh Airport","code":"EDI","lat":55.950145,"lon":-3.372288},{"city":"Isle of Islay, Argyll and Bute","country":"United Kingdom","name":"Islay Airport","code":"ILY","lat":55.682708,"lon":-6.257525},{"city":"Prestwick, South Ayrshire","country":"United Kingdom","name":"Glasgow Prestwick Airport","code":"PIK","lat":55.502003,"lon":-4.587019},{"city":"Balivanich","country":"United Kingdom","name":"Benbecula Airport","code":"BEB","lat":57.481098175048828,"lon":-7.3627800941467285},{"city":"Dundee","country":"United Kingdom","name":"Dundee Airport","code":"DND","lat":56.452499389648438,"lon":-3.0258300304412842},{"city":"Stornoway, Western Isles","country":"United Kingdom","name":"Stornoway Airport","code":"SYY","lat":58.215599,"lon":-6.33111},{"city":"Eoligarry","country":"United Kingdom","name":"Barra Airport","code":"BRR","lat":57.0228,"lon":-7.44306},{"city":"Balemartine","country":"United Kingdom","name":"Tiree Airport","code":"TRE","lat":56.499198913574219,"lon":-6.8691701889038086},{"city":"Norwich, Norfolk","country":"United Kingdom","name":"Norwich Airport","code":"NWI","lat":52.6758,"lon":1.28278},{"city":"London","country":"United Kingdom","name":"London Stansted Airport","code":"STN","lat":51.884998,"lon":0.235},{"city":"Exeter, Devon","country":"United Kingdom","name":"Exeter International Airport","code":"EXT","lat":50.734261,"lon":-3.413984},{"city":"Mount Pleasant","country":"Falkland Islands","name":"Mount Pleasant Airport","code":"MPN","lat":-51.822799682617188,"lon":-58.447200775146484},{"city":"Amsterdam","country":"Netherlands","name":"Amsterdam Airport Schiphol","code":"AMS","lat":52.308601,"lon":4.76389},{"city":"Maastricht","country":"Netherlands","name":"Maastricht Aachen Airport","code":"MST","lat":50.911701,"lon":5.77014},{"city":"Eindhoven","country":"Netherlands","name":"Eindhoven Airport","code":"EIN","lat":51.4500999451,"lon":5.37452983856},{"city":"Groningen","country":"Netherlands","name":"Groningen Airport Eelde","code":"GRQ","lat":53.119701,"lon":6.57944},{"city":"Rotterdam","country":"Netherlands","name":"Rotterdam The Hague Airport","code":"RTM","lat":51.956902,"lon":4.43722},{"city":"Cork","country":"Ireland","name":"Cork Airport","code":"ORK","lat":51.841301,"lon":-8.49111},{"city":"Donegal","country":"Ireland","name":"Donegal Airport","code":"CFN","lat":55.0442008972168,"lon":-8.3409996032714844},{"city":"Dublin","country":"Ireland","name":"Dublin Airport","code":"DUB","lat":53.428713,"lon":-6.262121},{"city":"Charlestown","country":"Ireland","name":"Ireland West Knock Airport","code":"NOC","lat":53.910301,"lon":-8.81849},{"city":"Farranfore","country":"Ireland","name":"Kerry Airport","code":"KIR","lat":52.180901,"lon":-9.52378},{"city":"Shannon","country":"Ireland","name":"Shannon Airport","code":"SNN","lat":52.702,"lon":-8.92482},{"city":"Aarhus","country":"Denmark","name":"Aarhus Airport","code":"AAR","lat":56.303331,"lon":10.618286},{"city":"Billund","country":"Denmark","name":"Billund Airport","code":"BLL","lat":55.740335,"lon":9.157019},{"city":"Copenhagen","country":"Denmark","name":"Copenhagen Kastrup Airport","code":"CPH","lat":55.617900848389,"lon":12.656000137329},{"city":"Esbjerg","country":"Denmark","name":"Esbjerg Airport","code":"EBJ","lat":55.525902,"lon":8.5534},{"city":"Karup","country":"Denmark","name":"Midtjyllands Airport / Air Base Karup","code":"KRP","lat":56.297139,"lon":9.104311},{"city":"Odense","country":"Denmark","name":"Odense Hans Christian Andersen Airport","code":"ODE","lat":55.475307,"lon":10.327206},{"city":"Roskilde","country":"Denmark","name":"Copenhagen Roskilde Airport","code":"RKE","lat":55.585602,"lon":12.1314},{"city":"Rønne","country":"Denmark","name":"Bornholm Airport","code":"RNN","lat":55.063301,"lon":14.7596},{"city":"Sønderborg","country":"Denmark","name":"Sønderborg Airport","code":"SGD","lat":54.964401245117188,"lon":9.7917299270629883},{"city":"Vágar","country":"Faroe Islands","name":"Vágar Airport","code":"FAE","lat":62.063256,"lon":-7.275782},{"city":"Aalborg","country":"Denmark","name":"Aalborg Airport","code":"AAL","lat":57.094763,"lon":9.84993},{"city":"Luxembourg","country":"Luxembourg","name":"Luxembourg-Findel International Airport","code":"LUX","lat":49.6233333,"lon":6.2044444},{"city":"Ålesund","country":"Norway","name":"Ålesund Airport, Vigra","code":"AES","lat":62.5625,"lon":6.1197},{"city":"Andenes","country":"Norway","name":"Andøya Airport, Andenes","code":"ANX","lat":69.292503,"lon":16.144199},{"city":"Alta","country":"Norway","name":"Alta Airport","code":"ALF","lat":69.976097,"lon":23.3717},{"city":"Brønnøy","country":"Norway","name":"Brønnøysund Airport, Brønnøy","code":"BNN","lat":65.461098,"lon":12.2175},{"city":"Bodø","country":"Norway","name":"Bodø Airport","code":"BOO","lat":67.269203,"lon":14.3653},{"city":"Bergen","country":"Norway","name":"Bergen Airport, Flesland","code":"BGO","lat":60.2934,"lon":5.21814},{"city":"Båtsfjord","country":"Norway","name":"Båtsfjord Airport","code":"BJF","lat":70.60025,"lon":29.692612},{"city":"Berlevåg","country":"Norway","name":"Berlevåg Airport","code":"BVG","lat":70.871517,"lon":29.034097},{"city":"Kjevik","country":"Norway","name":"Kristiansand Airport, Kjevik","code":"KRS","lat":58.204201,"lon":8.08537},{"city":"Målselv","country":"Norway","name":"Bardufoss Airport","code":"BDU","lat":69.055801,"lon":18.5404},{"city":"Evenes","country":"Norway","name":"Harstad/Narvik Airport, Evenes","code":"EVE","lat":68.491302490234,"lon":16.678100585938},{"city":"Florø","country":"Norway","name":"Florø Airport","code":"FRO","lat":61.583599090576,"lon":5.0247201919556},{"city":"Oslo (Gardermoen)","country":"Norway","name":"Oslo Airport, Gardermoen","code":"OSL","lat":60.193901,"lon":11.1004},{"city":"Karmøy","country":"Norway","name":"Haugesund Airport, Karmøy","code":"HAU","lat":59.345299,"lon":5.20836},{"city":"Hammerfest","country":"Norway","name":"Hammerfest Airport","code":"HFT","lat":70.679703,"lon":23.6686},{"city":"Honningsvåg","country":"Norway","name":"Honningsvåg Airport, Valan","code":"HVG","lat":71.009697,"lon":25.983601},{"city":"Kvernberget","country":"Norway","name":"Kristiansund Airport, Kvernberget","code":"KSU","lat":63.111801,"lon":7.82452},{"city":"Kirkenes","country":"Norway","name":"Kirkenes Airport, Høybuktmoen","code":"KKN","lat":69.7258,"lon":29.8913},{"city":"Leknes","country":"Norway","name":"Leknes Airport","code":"LKN","lat":68.152496337891,"lon":13.609399795532},{"city":"Mehamn","country":"Norway","name":"Mehamn Airport","code":"MEH","lat":71.029701,"lon":27.8267},{"city":"Årø","country":"Norway","name":"Molde Airport, Årø","code":"MOL","lat":62.744701,"lon":7.2625},{"city":"Mosjøen","country":"Norway","name":"Mosjøen Airport, Kjærstad","code":"MJF","lat":65.783997,"lon":13.2149},{"city":"Lakselv","country":"Norway","name":"Lakselv Airport, Banak","code":"LKL","lat":70.068802,"lon":24.973499},{"city":"Ørland","country":"Norway","name":"Ørland Airport","code":"OLA","lat":63.698898315429688,"lon":9.6040000915527344},{"city":"Ørsta","country":"Norway","name":"Ørsta-Volda Airport, Hovden","code":"HOV","lat":62.180000305176,"lon":6.0741000175476},{"city":"Mo i Rana","country":"Norway","name":"Mo i Rana Airport, Røssvoll","code":"MQN","lat":66.363899230957,"lon":14.301400184631},{"city":"Rørvik","country":"Norway","name":"Rørvik Airport, Ryum","code":"RVK","lat":64.838302612305,"lon":11.14610004425},{"city":"Røros","country":"Norway","name":"Røros Airport","code":"RRS","lat":62.578399658203,"lon":11.342300415039},{"city":"Longyearbyen","country":"Norway","name":"Svalbard Airport, Longyear","code":"LYR","lat":78.246101379395,"lon":15.465600013733},{"city":"Svolvær","country":"Norway","name":"Svolvær Airport, Helle","code":"SVJ","lat":68.243301,"lon":14.6692},{"city":"Hadsel","country":"Norway","name":"Stokmarknes Airport, Skagen","code":"SKN","lat":68.578827,"lon":15.033417},{"city":"Leirvik","country":"Norway","name":"Stord Airport, Sørstokken","code":"SRP","lat":59.791901,"lon":5.34085},{"city":"Sørkjosen","country":"Norway","name":"Sørkjosen Airport","code":"SOJ","lat":69.786797,"lon":20.9594},{"city":"Vardø","country":"Norway","name":"Vardø Airport, Svartnes","code":"VAW","lat":70.3554,"lon":31.044901},{"city":"Alstahaug","country":"Norway","name":"Sandnessjøen Airport, Stokka","code":"SSJ","lat":65.956802,"lon":12.4689},{"city":"Tromsø","country":"Norway","name":"Tromsø Airport, Langnes","code":"TOS","lat":69.683296,"lon":18.9189},{"city":"Torp","country":"Norway","name":"Sandefjord Airport, Torp","code":"TRF","lat":59.186699,"lon":10.2586},{"city":"Trondheim","country":"Norway","name":"Trondheim Airport, Værnes","code":"TRD","lat":63.457802,"lon":10.924},{"city":"Vadsø","country":"Norway","name":"Vadsø Airport","code":"VDS","lat":70.0653,"lon":29.8447},{"city":"Stavanger","country":"Norway","name":"Stavanger Airport, Sola","code":"SVG","lat":58.876701,"lon":5.63778},{"city":"Bydgoszcz","country":"Poland","name":"Bydgoszcz Ignacy Jan Paderewski Airport","code":"BZG","lat":53.096802,"lon":17.977699},{"city":"Gdańsk","country":"Poland","name":"Gdańsk Lech Wałęsa Airport","code":"GDN","lat":54.377602,"lon":18.4662},{"city":"Balice","country":"Poland","name":"Kraków John Paul II International Airport","code":"KRK","lat":50.077702,"lon":19.7848},{"city":"Katowice","country":"Poland","name":"Katowice Wojciech Korfanty International Airport","code":"KTW","lat":50.476015,"lon":19.080705},{"city":"Lublin","country":"Poland","name":"Lublin Airport","code":"LUZ","lat":51.240157,"lon":22.713461},{"city":"Łódź","country":"Poland","name":"Łódź Władysław Reymont Airport","code":"LCJ","lat":51.721901,"lon":19.3981},{"city":"Nowy Dwór Mazowiecki","country":"Poland","name":"Modlin Airport","code":"WMI","lat":52.451099,"lon":20.6518},{"city":"Poznań","country":"Poland","name":"Poznań-Ławica Airport","code":"POZ","lat":52.421598,"lon":16.823359},{"city":"Radom","country":"Poland","name":"Warsaw Radom Airport","code":"RDO","lat":51.38937,"lon":21.214742},{"city":"Jasionka","country":"Poland","name":"Rzeszów-Jasionka Airport","code":"RZE","lat":50.109791,"lon":22.024155},{"city":"Glewice","country":"Poland","name":"Solidarity Szczecin–Goleniów Airport","code":"SZZ","lat":53.584702,"lon":14.9022},{"city":"Szymany","country":"Poland","name":"Olsztyn-Mazury Airport","code":"SZY","lat":53.481899,"lon":20.9377},{"city":"Warsaw","country":"Poland","name":"Warsaw Chopin Airport","code":"WAW","lat":52.165699,"lon":20.9671},{"city":"Wrocław","country":"Poland","name":"Copernicus Wrocław Airport","code":"WRO","lat":51.103719,"lon":16.882096},{"city":"Nowe Kramsko","country":"Poland","name":"Zielona Góra-Babimost Airport","code":"IEG","lat":52.1385,"lon":15.7986},{"city":"Ronneby","country":"Sweden","name":"Ronneby Airport","code":"RNB","lat":56.266701,"lon":15.265},{"city":"Göteborg","country":"Sweden","name":"Göteborg Landvetter Airport","code":"GOT","lat":57.6628,"lon":12.2798},{"city":"Jönköping","country":"Sweden","name":"Jönköping Airport","code":"JKG","lat":57.757598876953125,"lon":14.068699836730957},{"city":"Trollhättan","country":"Sweden","name":"Trollhättan-Vänersborg Airport","code":"THN","lat":58.318099975585938,"lon":12.345000267028809},{"city":"Mora","country":"Sweden","name":"Mora Airport","code":"MXX","lat":60.957901,"lon":14.5114},{"city":"Nyköping","country":"Sweden","name":"Stockholm Skavsta Airport","code":"NYO","lat":58.788601,"lon":16.912201},{"city":"Malung-Sälen","country":"Sweden","name":"Scandinavian Mountains Airport","code":"SCR","lat":61.158393,"lon":12.842503},{"city":"Kalmar","country":"Sweden","name":"Kalmar Airport","code":"KLR","lat":56.685501,"lon":16.2876},{"city":"Malmö","country":"Sweden","name":"Malmö Sturup Airport","code":"MMX","lat":55.535564,"lon":13.376327},{"city":"Halmstad","country":"Sweden","name":"Halmstad Airport","code":"HAD","lat":56.69110107421875,"lon":12.820199966430664},{"city":"Växjö","country":"Sweden","name":"Växjö Kronoberg Airport","code":"VXO","lat":56.929100036621094,"lon":14.727999687194824},{"city":"Gällivare","country":"Sweden","name":"Gällivare Airport","code":"GEV","lat":67.132400512695313,"lon":20.814599990844727},{"city":"Nyland","country":"Sweden","name":"Kramfors-Sollefteå Höga Kusten Airport","code":"KRF","lat":63.048599,"lon":17.7689},{"city":"Lycksele","country":"Sweden","name":"Lycksele Airport","code":"LYC","lat":64.548302,"lon":18.7162},{"city":"Sundsvall/ Härnösand","country":"Sweden","name":"Sundsvall-Härnösand Airport","code":"SDL","lat":62.528099060058594,"lon":17.443899154663086},{"city":"Örnsköldsvik","country":"Sweden","name":"Örnsköldsvik Airport","code":"OER","lat":63.408298492431641,"lon":18.989999771118164},{"city":"Kiruna","country":"Sweden","name":"Kiruna Airport","code":"KRN","lat":67.821998596191,"lon":20.336799621582},{"city":"Skellefteå","country":"Sweden","name":"Skellefteå Airport","code":"SFT","lat":64.624801635742188,"lon":21.076900482177734},{"city":"Umeå","country":"Sweden","name":"Umeå Airport","code":"UME","lat":63.791801452637,"lon":20.282800674438},{"city":"Vilhelmina","country":"Sweden","name":"Vilhelmina South Lapland Airport","code":"VHM","lat":64.579102,"lon":16.833599},{"city":"Arvidsjaur","country":"Sweden","name":"Arvidsjaur Airport","code":"AJR","lat":65.590301513671875,"lon":19.281900405883789},{"city":"Östersund","country":"Sweden","name":"Åre Östersund Airport","code":"OSD","lat":63.194135,"lon":14.500322},{"city":"Örebro","country":"Sweden","name":"Örebro Airport","code":"ORB","lat":59.223701477050781,"lon":15.038000106811523},{"city":"Karlstad","country":"Sweden","name":"Karlstad Airport","code":"KSD","lat":59.444698,"lon":13.3374},{"city":"Stockholm / Västerås","country":"Sweden","name":"Stockholm Västerås Airport","code":"VST","lat":59.589401245117188,"lon":16.633600234985352},{"city":"Luleå","country":"Sweden","name":"Luleå Airport","code":"LLA","lat":65.5438,"lon":22.122},{"city":"Stockholm","country":"Sweden","name":"Stockholm-Arlanda Airport","code":"ARN","lat":59.64849,"lon":17.928829},{"city":"Stockholm","country":"Sweden","name":"Stockholm-Bromma Airport","code":"BMA","lat":59.354400634765625,"lon":17.941699981689453},{"city":"Borlange","country":"Sweden","name":"Dala Airport","code":"BLE","lat":60.422001,"lon":15.5152},{"city":"Linköping","country":"Sweden","name":"Linköping City Airport","code":"LPI","lat":58.4062004089,"lon":15.680500030500001},{"city":"Norrköping","country":"Sweden","name":"Norrköping Airport","code":"NRK","lat":58.586299896240234,"lon":16.250600814819336},{"city":"Torsby","country":"Sweden","name":"Torsby Airport","code":"TYF","lat":60.1576,"lon":12.9913},{"city":"Visby","country":"Sweden","name":"Visby Airport","code":"VBY","lat":57.662799835205,"lon":18.346200942993},{"city":"Ängelholm","country":"Sweden","name":"Ängelholm-Helsingborg Airport","code":"AGH","lat":56.296100616455078,"lon":12.847100257873535},{"city":"Wurster Nordseeküste","country":"Germany","name":"Sea-Airport Cuxhaven/Nordholz / Nordholz Naval Airbase","code":"FCN","lat":53.767689,"lon":8.659201},{"city":"Laage","country":"Germany","name":"Rostock-Laage Airport","code":"RLG","lat":53.918201,"lon":12.2783},{"city":"Riga","country":"Latvia","name":"Riga International Airport","code":"RIX","lat":56.920752,"lon":23.970711},{"city":"Kaunas","country":"Lithuania","name":"Kaunas International Airport","code":"KUN","lat":54.963901519775391,"lon":24.084800720214844},{"city":"Palanga","country":"Lithuania","name":"Palanga International Airport","code":"PLQ","lat":55.973201751708984,"lon":21.093900680541992},{"city":"Vilnius","country":"Lithuania","name":"Vilnius International Airport","code":"VNO","lat":54.634102,"lon":25.285801},{"city":"Bloemfontain","country":"South Africa","name":"Bram Fischer International Airport","code":"BFN","lat":-29.092699,"lon":26.302401},{"city":"Cape Town","country":"South Africa","name":"Cape Town International Airport","code":"CPT","lat":-33.9648017883,"lon":18.6016998291},{"city":"East London","country":"South Africa","name":"King Phalo Airport","code":"ELS","lat":-33.035599,"lon":27.825899},{"city":"George","country":"South Africa","name":"George Airport","code":"GRJ","lat":-34.0056,"lon":22.378902},{"city":"Kimberley","country":"South Africa","name":"Kimberley Airport","code":"KIM","lat":-28.802799224900003,"lon":24.7651996613},{"city":"Mpumalanga","country":"South Africa","name":"Kruger Mpumalanga International Airport","code":"MQP","lat":-25.3831996918,"lon":31.1056003571},{"city":"Johannesburg","country":"South Africa","name":"Lanseria International Airport","code":"HLA","lat":-25.938499,"lon":27.9261},{"city":"Durban","country":"South Africa","name":"King Shaka International Airport","code":"DUR","lat":-29.6144444444,"lon":31.1197222222},{"city":"Margate","country":"South Africa","name":"Margate Airport","code":"MGH","lat":-30.8574008942,"lon":30.343000412},{"city":"Mafeking","country":"South Africa","name":"Mmabatho International Airport","code":"MBD","lat":-25.798400878900004,"lon":25.548000335699996},{"city":"Johannesburg","country":"South Africa","name":"O.R. Tambo International Airport","code":"JNB","lat":-26.1392,"lon":28.246},{"city":"Gqeberha (Port Elizabeth)","country":"South Africa","name":"Chief Dawid Stuurman International Airport","code":"PLZ","lat":-33.984901,"lon":25.6173},{"city":"Phalaborwa","country":"South Africa","name":"Hendrik Van Eck Airport","code":"PHW","lat":-23.937200546299998,"lon":31.1553993225},{"city":"Pietermaritzburg","country":"South Africa","name":"Pietermaritzburg Airport","code":"PZB","lat":-29.649000167799997,"lon":30.3987007141},{"city":"Polokwane","country":"South Africa","name":"Polokwane International Airport","code":"PTG","lat":-23.845269,"lon":29.458615},{"city":"Richards Bay","country":"South Africa","name":"Richards Bay Airport","code":"RCB","lat":-28.740999221800003,"lon":32.0920982361},{"city":"Sishen","country":"South Africa","name":"Sishen Airport","code":"SIS","lat":-27.6486,"lon":22.9993},{"city":"Upington","country":"South Africa","name":"Pierre Van Ryneveld Airport","code":"UTN","lat":-28.39909935,"lon":21.260200500499998},{"city":"Mthatha","country":"South Africa","name":"K. D. Matanzima Airport","code":"UTT","lat":-31.546363184900002,"lon":28.6733551025},{"city":"Francistown","country":"Botswana","name":"P G Matante Intl","code":"FRW","lat":-21.15914,"lon":27.468545},{"city":"Kasane","country":"Botswana","name":"Kasane Airport","code":"BBK","lat":-17.832899,"lon":25.162399},{"city":"Maun","country":"Botswana","name":"Maun Airport","code":"MUB","lat":-19.970491,"lon":23.431409},{"city":"Gaborone","country":"Botswana","name":"Sir Seretse Khama International Airport","code":"GBE","lat":-24.555201,"lon":25.9182},{"city":"Brazzaville","country":"Republic of the Congo","name":"Maya-Maya Airport","code":"BZV","lat":-4.2516999244689941,"lon":15.253000259399414},{"city":"Pointe Noire","country":"Republic of the Congo","name":"Antonio Agostinho-Neto International Airport","code":"PNR","lat":-4.81603,"lon":11.8866},{"city":"Mpaka","country":"Eswatini","name":"King Mswati III International Airport","code":"SHO","lat":-26.358611,"lon":31.716944},{"city":"Bangui","country":"Central African Republic","name":"Bangui M\u0027Poko International Airport","code":"BGF","lat":4.39847993850708,"lon":18.518800735473633},{"city":"Bata","country":"Equatorial Guinea","name":"Bata Airport","code":"BSG","lat":1.90547,"lon":9.80568},{"city":"Malabo","country":"Equatorial Guinea","name":"Malabo Airport","code":"SSG","lat":3.7552700042724609,"lon":8.7087202072143555},{"city":"Cat Hill","country":"Saint Helena, Ascension and Tristan da Cunha","name":"RAF Ascension Island","code":"ASI","lat":-7.9696,"lon":-14.3937},{"city":"Plaine Magnien","country":"Mauritius","name":"Sir Seewoosagur Ramgoolam International Airport","code":"MRU","lat":-20.430201,"lon":57.683601},{"city":"Port Mathurin","country":"Mauritius","name":"Sir Charles Gaetan Duval Airport","code":"RRG","lat":-19.7577,"lon":63.361},{"city":"Douala","country":"Cameroon","name":"Douala International Airport","code":"DLA","lat":4.0060801506,"lon":9.7194795608499991},{"city":"Maroua","country":"Cameroon","name":"Salak Airport","code":"MVR","lat":10.451399803161621,"lon":14.257399559020996},{"city":"N\u0027Gaoundéré","country":"Cameroon","name":"N\u0027Gaoundéré Airport","code":"NGE","lat":7.3570098876953125,"lon":13.559200286865234},{"city":"Garoua","country":"Cameroon","name":"Garoua International Airport","code":"GOU","lat":9.33588981628418,"lon":13.370100021362305},{"city":"Yaoundé","country":"Cameroon","name":"Yaoundé Nsimalen International Airport","code":"NSI","lat":3.72256,"lon":11.5533},{"city":"Livingstone","country":"Zambia","name":"Harry Mwanga Nkumbula International Airport","code":"LVI","lat":-17.8218,"lon":25.822701},{"city":"Lusaka","country":"Zambia","name":"Kenneth Kaunda International Airport","code":"LUN","lat":-15.330833,"lon":28.452722},{"city":"Mfuwe","country":"Zambia","name":"Mfuwe Airport","code":"MFU","lat":-13.258899688720703,"lon":31.936599731445313},{"city":"Ndola","country":"Zambia","name":"Simon Mwansa Kapwepwe International Airport","code":"NLA","lat":-12.961667,"lon":28.516667},{"city":"Moroni","country":"Comoros","name":"Prince Said Ibrahim International Airport","code":"HAH","lat":-11.5337,"lon":43.2719},{"city":"Ouani","country":"Comoros","name":"Ouani Airport","code":"AJN","lat":-12.131047,"lon":44.430044},{"city":"Dzaoudzi","country":"Mayotte","name":"Dzaoudzi Pamandzi International Airport","code":"DZA","lat":-12.809319,"lon":45.281815},{"city":"Sainte-Marie","country":"Réunion","name":"Roland Garros Airport","code":"RUN","lat":-20.890087,"lon":55.518894},{"city":"Saint-Pierre","country":"Réunion","name":"Pierrefonds Airport","code":"ZSE","lat":-21.319362,"lon":55.422506},{"city":"Antananarivo","country":"Madagascar","name":"Ivato Airport","code":"TNR","lat":-18.7969,"lon":47.478802},{"city":"Vohilava","country":"Madagascar","name":"Sainte Marie Airport","code":"SMS","lat":-17.093901,"lon":49.8158},{"city":"Toamasina","country":"Madagascar","name":"Toamasina Ambalamanasy Airport","code":"TMM","lat":-18.109501,"lon":49.392502},{"city":"Morondava","country":"Madagascar","name":"Morondava Airport","code":"MOQ","lat":-20.2847,"lon":44.3176},{"city":"Antisiranana","country":"Madagascar","name":"Arrachart Airport","code":"DIE","lat":-12.3494,"lon":49.291698},{"city":"Mahajanga","country":"Madagascar","name":"Amborovy Airport","code":"MJN","lat":-15.666842,"lon":46.351233},{"city":"Nosy Be","country":"Madagascar","name":"Fascene Airport","code":"NOS","lat":-13.3121,"lon":48.3148},{"city":"Besalampy","country":"Madagascar","name":"Besalampy Airport","code":"BPY","lat":-16.74453,"lon":44.482484},{"city":"Maroantsetra","country":"Madagascar","name":"Maroantsetra Airport","code":"WMN","lat":-15.437742,"lon":49.689081},{"city":"Sambava","country":"Madagascar","name":"Sambava Airport","code":"SVB","lat":-14.2786,"lon":50.174702},{"city":"Tôlanaro","country":"Madagascar","name":"Tôlanaro Airport","code":"FTU","lat":-25.038099,"lon":46.9561},{"city":"Mananjary","country":"Madagascar","name":"Mananjary Airport","code":"MNJ","lat":-21.201799,"lon":48.358299},{"city":"Toliara","country":"Madagascar","name":"Toliara Airport","code":"TLE","lat":-23.3834,"lon":43.7285},{"city":"Mbanza Congo","country":"Angola","name":"Mbanza Congo Airport","code":"SSY","lat":-6.269899845123291,"lon":14.246999740600586},{"city":"Cabinda","country":"Angola","name":"Cabinda Airport","code":"CAB","lat":-5.59699010848999,"lon":12.188400268554688},{"city":"Catumbela","country":"Angola","name":"Catumbela Airport","code":"CBT","lat":-12.4792,"lon":13.4869},{"city":"Chitato","country":"Angola","name":"Dundo Airport","code":"DUE","lat":-7.4008898735046387,"lon":20.818500518798828},{"city":"Ngiva","country":"Angola","name":"Ngjiva Pereira Airport","code":"VPE","lat":-17.0435009003,"lon":15.683799743700002},{"city":"Huambo","country":"Angola","name":"Albano Machado Airport","code":"NOV","lat":-12.8089,"lon":15.7605},{"city":"Luanda","country":"Angola","name":"Quatro de Fevereiro International Airport","code":"LAD","lat":-8.85837,"lon":13.2312},{"city":"Malanje","country":"Angola","name":"Malanje Airport","code":"MEG","lat":-9.525090217590332,"lon":16.312400817871094},{"city":"Menongue","country":"Angola","name":"Menongue Airport","code":"SPP","lat":-14.657600402832031,"lon":17.71980094909668},{"city":"Moçâmedes","country":"Angola","name":"Welwitschia Mirabilis International Airport","code":"MSZ","lat":-15.2612,"lon":12.1468},{"city":"Negage","country":"Angola","name":"Negage Airport","code":"GXG","lat":-7.7545099258422852,"lon":15.287699699401855},{"city":"Soyo","country":"Angola","name":"Soyo Airport","code":"SZA","lat":-6.141089916229248,"lon":12.371800422668457},{"city":"Lubango","country":"Angola","name":"Lubango Airport","code":"SDD","lat":-14.924699783325195,"lon":13.574999809265137},{"city":"Oyem","country":"Gabon","name":"Oyem Airport","code":"OYE","lat":1.5431100130081177,"lon":11.581399917602539},{"city":"Port Gentil","country":"Gabon","name":"Port Gentil Airport","code":"POG","lat":-0.71173900365829468,"lon":8.7543802261352539},{"city":"Makokou","country":"Gabon","name":"Makokou Airport","code":"MKU","lat":0.57921099662780762,"lon":12.890899658203125},{"city":"Libreville","country":"Gabon","name":"Libreville Leon M\u0027ba International Airport","code":"LBV","lat":0.458600014448,"lon":9.4122800826999988},{"city":"Franceville","country":"Gabon","name":"M\u0027Vengue El Hadj Omar Bongo Ondimba International Airport","code":"MVB","lat":-1.6561599969863892,"lon":13.437999725341797},{"city":"São Tomé \u0026 Príncipe","country":"São Tomé and Principe","name":"Principe Airport","code":"PCP","lat":1.66294,"lon":7.41174},{"city":"São Tomé","country":"São Tomé and Principe","name":"São Tomé International Airport","code":"TMS","lat":0.378175,"lon":6.71215},{"city":"Beira","country":"Mozambique","name":"Beira Airport","code":"BEW","lat":-19.7964,"lon":34.9076},{"city":"Chimoio","country":"Mozambique","name":"Chimoio Airport","code":"VPY","lat":-19.151300430297852,"lon":33.429000854492188},{"city":"Inhambane","country":"Mozambique","name":"Inhambane Airport","code":"INH","lat":-23.8764,"lon":35.408501},{"city":"Lichinga","country":"Mozambique","name":"Lichinga Airport","code":"VXC","lat":-13.274,"lon":35.2663},{"city":"Maputo","country":"Mozambique","name":"Maputo Airport","code":"MPM","lat":-25.920799,"lon":32.572601},{"city":"Nampula","country":"Mozambique","name":"Nampula Airport","code":"APL","lat":-15.105600357055664,"lon":39.28179931640625},{"city":"Pemba","country":"Mozambique","name":"Pemba Airport","code":"POL","lat":-12.993302,"lon":40.524867},{"city":"Quelimane","country":"Mozambique","name":"Quelimane Airport","code":"UEL","lat":-17.855499267578125,"lon":36.869098663330078},{"city":"Tete","country":"Mozambique","name":"Chingozi Airport","code":"TET","lat":-16.104799270629883,"lon":33.640201568603516},{"city":"Vilanculo","country":"Mozambique","name":"Vilankulo Airport","code":"VNX","lat":-22.018400192260742,"lon":35.313301086425781},{"city":"Mahe Island","country":"Seychelles","name":"Seychelles International Airport","code":"SEZ","lat":-4.67434,"lon":55.521801},{"city":"Praslin Island","country":"Seychelles","name":"Praslin Island Airport","code":"PRI","lat":-4.319256,"lon":55.691561},{"city":"Abeche","country":"Chad","name":"Abeche Airport","code":"AEH","lat":13.847,"lon":20.844299},{"city":"N\u0027Djamena","country":"Chad","name":"N\u0027Djamena International Airport","code":"NDJ","lat":12.1337,"lon":15.034},{"city":"Bulawayo","country":"Zimbabwe","name":"Joshua Mqabuko Nkomo International Airport","code":"BUQ","lat":-20.021254,"lon":28.626296},{"city":"Victoria Falls","country":"Zimbabwe","name":"Victoria Falls International Airport","code":"VFA","lat":-18.09589958190918,"lon":25.839000701904297},{"city":"Harare","country":"Zimbabwe","name":"Robert Gabriel Mugabe International Airport","code":"HRE","lat":-17.931801,"lon":31.0928},{"city":"Blantyre","country":"Malawi","name":"Chileka International Airport","code":"BLZ","lat":-15.679100036621094,"lon":34.9739990234375},{"city":"Lumbadzi","country":"Malawi","name":"Kamuzu International Airport","code":"LLW","lat":-13.7894,"lon":33.780998},{"city":"Mazenod","country":"Lesotho","name":"Moshoeshoe I International Airport","code":"MSU","lat":-29.462299,"lon":27.5525},{"city":"Mpacha","country":"Namibia","name":"Katima Mulilo Airport","code":"MPA","lat":-17.634258,"lon":24.176688},{"city":"Luderitz","country":"Namibia","name":"Luderitz Airport","code":"LUD","lat":-26.687400817871094,"lon":15.242899894714355},{"city":"Ondangwa","country":"Namibia","name":"Ondangwa Airport","code":"OND","lat":-17.878201,"lon":15.9526},{"city":"Oranjemund","country":"Namibia","name":"Oranjemund Airport","code":"OMD","lat":-28.5847,"lon":16.446699},{"city":"Rundu","country":"Namibia","name":"Rundu Airport","code":"NDU","lat":-17.956499099731,"lon":19.719400405884},{"city":"Rooikop","country":"Namibia","name":"Walvis Bay Airport","code":"WVB","lat":-22.979332,"lon":14.647102},{"city":"Windhoek","country":"Namibia","name":"Eros Airport","code":"ERS","lat":-22.612199783325195,"lon":17.080400466918945},{"city":"Windhoek","country":"Namibia","name":"Hosea Kutako International Airport","code":"WDH","lat":-22.4799,"lon":17.4709},{"city":"Kinshasa","country":"Democratic Republic of the Congo","name":"Ndjili International Airport","code":"FIH","lat":-4.38575,"lon":15.4446},{"city":"Bandundu","country":"Democratic Republic of the Congo","name":"Bandundu Airport","code":"FDU","lat":-3.31132,"lon":17.381701},{"city":"Kikwit","country":"Democratic Republic of the Congo","name":"Kikwit Airport","code":"KKW","lat":-5.03577,"lon":18.785601},{"city":"Mbandaka","country":"Democratic Republic of the Congo","name":"Mbandaka Airport","code":"MDK","lat":0.0226000007242,"lon":18.2887001038},{"city":"Gbadolite","country":"Democratic Republic of the Congo","name":"Gbadolite Airport","code":"BDT","lat":4.252745,"lon":20.975271},{"city":"Gemena","country":"Democratic Republic of the Congo","name":"Gemena Airport","code":"GMA","lat":3.23537,"lon":19.771299},{"city":"Kisangani","country":"Democratic Republic of the Congo","name":"Bangoka International Airport","code":"FKI","lat":0.481638997793,"lon":25.3379993439},{"city":"Isiro","country":"Democratic Republic of the Congo","name":"Matari Airport","code":"IRP","lat":2.82761,"lon":27.588301},{"city":"Bunia","country":"Democratic Republic of the Congo","name":"Bunia Airport","code":"BUX","lat":1.565743,"lon":30.220685},{"city":"Goma","country":"Democratic Republic of the Congo","name":"Goma International Airport","code":"GOM","lat":-1.66617,"lon":29.237929},{"city":"Kindu","country":"Democratic Republic of the Congo","name":"Kindu Airport","code":"KND","lat":-2.91917991638,"lon":25.915399551399997},{"city":"Lubumbashi","country":"Democratic Republic of the Congo","name":"Lubumbashi International Airport","code":"FBM","lat":-11.5913000107,"lon":27.5308990479},{"city":"Kolwezi","country":"Democratic Republic of the Congo","name":"Kolwezi Airport","code":"KWZ","lat":-10.7659,"lon":25.505699},{"city":"Kalemie","country":"Democratic Republic of the Congo","name":"Kalemie Airport","code":"FMI","lat":-5.87556,"lon":29.25},{"city":"Kananga","country":"Democratic Republic of the Congo","name":"Kananga Airport","code":"KGA","lat":-5.90005,"lon":22.4692},{"city":"Mbuji Mayi","country":"Democratic Republic of the Congo","name":"Mbuji Mayi Airport","code":"MJM","lat":-6.1212401390100011,"lon":23.569000244099996},{"city":"Bamako","country":"Mali","name":"Modibo Keita International Airport","code":"BKO","lat":12.5335,"lon":-7.94994},{"city":"","country":"Mali","name":"Gao Airport","code":"GAQ","lat":16.2484,"lon":-0.005456},{"city":"Sévaré","country":"Mali","name":"Mopti Ambodédjo International Airport","code":"MZI","lat":14.5128,"lon":-4.07956},{"city":"Timbuktu","country":"Mali","name":"Timbuktu Airport","code":"TOM","lat":16.730499,"lon":-3.00758},{"city":"Yundum","country":"Gambia","name":"Banjul International Airport","code":"BJL","lat":13.338,"lon":-16.652201},{"city":"El Matorral","country":"Spain","name":"Fuerteventura Airport","code":"FUE","lat":28.4527,"lon":-13.8638},{"city":"El Hierro Island","country":"Spain","name":"El Hierro Airport","code":"VDE","lat":27.8148,"lon":-17.8871},{"city":"Sta Cruz de la Palma, La Palma Island","country":"Spain","name":"La Palma Airport","code":"SPC","lat":28.626499,"lon":-17.7556},{"city":"Gran Canaria Island","country":"Spain","name":"Gran Canaria Airport","code":"LPA","lat":27.9319,"lon":-15.3866},{"city":"San Bartolomé","country":"Spain","name":"César Manrique-Lanzarote Airport","code":"ACE","lat":28.945499,"lon":-13.6052},{"city":"Tenerife","country":"Spain","name":"Tenerife Sur Airport","code":"TFS","lat":28.0445,"lon":-16.5725},{"city":"Tenerife","country":"Spain","name":"Tenerife Norte-Ciudad de La Laguna Airport","code":"TFN","lat":28.4827,"lon":-16.341499},{"city":"Melilla","country":"Spain","name":"Melilla Airport","code":"MLN","lat":35.2798,"lon":-2.95626},{"city":"Freetown (Lungi-Town)","country":"Sierra Leone","name":"Lungi International Airport","code":"FNA","lat":8.61644,"lon":-13.1955},{"city":"Bissau","country":"Guinea-Bissau","name":"Osvaldo Vieira International Airport","code":"OXB","lat":11.894800186157227,"lon":-15.65369987487793},{"city":"Monrovia","country":"Liberia","name":"Spriggs Payne Airport","code":"MLW","lat":6.28906,"lon":-10.7587},{"city":"Monrovia","country":"Liberia","name":"Roberts International Airport","code":"ROB","lat":6.23379,"lon":-10.3623},{"city":"Agadir (Temsia)","country":"Morocco","name":"Al Massira Airport","code":"AGA","lat":30.322478,"lon":-9.412003},{"city":"Tan Tan","country":"Morocco","name":"Tan Tan Airport","code":"TTA","lat":28.448200225830078,"lon":-11.161299705505371},{"city":"Saïss","country":"Morocco","name":"Fes Saïss International Airport","code":"FEZ","lat":33.927299,"lon":-4.97796},{"city":"Errachidia","country":"Morocco","name":"Moulay Ali Cherif Airport","code":"ERH","lat":31.9475002289,"lon":-4.39833021164},{"city":"Ahl Angad","country":"Morocco","name":"Oujda Angads Airport","code":"OUD","lat":34.789558,"lon":-1.926041},{"city":"Rabat","country":"Morocco","name":"Rabat-Salé Airport","code":"RBA","lat":34.051498,"lon":-6.75152},{"city":"Dakhla","country":"Western Sahara (disputed territory)","name":"Dakhla Airport","code":"VIL","lat":23.7183,"lon":-15.932},{"city":"Essaouira","country":"Morocco","name":"Essaouira-Mogador Airport","code":"ESU","lat":31.397499,"lon":-9.68167},{"city":"El Aaiún","country":"Western Sahara (disputed territory)","name":"Hassan I Airport","code":"EUN","lat":27.142467,"lon":-13.224947},{"city":"Casablanca","country":"Morocco","name":"Mohammed V International Airport","code":"CMN","lat":33.3675,"lon":-7.58997},{"city":"Al Aaroui","country":"Morocco","name":"Nador Al Aaroui International Airport","code":"NDR","lat":34.9888,"lon":-3.02821},{"city":"Marrakech","country":"Morocco","name":"Menara Airport","code":"RAK","lat":31.606899,"lon":-8.0363},{"city":"Ouarzazate","country":"Morocco","name":"Ouarzazate Airport","code":"OZZ","lat":30.9391002655,"lon":-6.9094300270100009},{"city":"Tétouan","country":"Morocco","name":"Sania Ramel Airport","code":"TTU","lat":35.594299,"lon":-5.32002},{"city":"Tangier","country":"Morocco","name":"Tangier Ibn Battuta Airport","code":"TNG","lat":35.731741,"lon":-5.921459},{"city":"Dakar","country":"Senegal","name":"Blaise Diagne International Airport","code":"DSS","lat":14.670878,"lon":-17.072829},{"city":"Cap Skirring","country":"Senegal","name":"Cap Skirring Airport","code":"CSK","lat":12.39533,"lon":-16.748},{"city":"Nouakchott","country":"Mauritania","name":"Nouakchott–Oumtounsy International Airport","code":"NKC","lat":18.31,"lon":-15.969722},{"city":"Nouadhibou","country":"Mauritania","name":"Nouadhibou International Airport","code":"NDB","lat":20.9330997467041,"lon":-17.030000686645508},{"city":"Conakry","country":"Guinea","name":"Conakry International Airport","code":"CKY","lat":9.57689,"lon":-13.612},{"city":"Espargos","country":"Cape Verde","name":"Amílcar Cabral International Airport","code":"SID","lat":16.7414,"lon":-22.9494},{"city":"Rabil","country":"Cape Verde","name":"Rabil Airport","code":"BVC","lat":16.136499404907227,"lon":-22.888900756835938},{"city":"Vila do Maio","country":"Cape Verde","name":"Maio Airport","code":"MMO","lat":15.155900001525879,"lon":-23.213699340820313},{"city":"Praia","country":"Cape Verde","name":"Nelson Mandela International Airport","code":"RAI","lat":14.941126,"lon":-23.484728},{"city":"Preguiça","country":"Cape Verde","name":"Preguiça Airport","code":"SNE","lat":16.588852,"lon":-24.284132},{"city":"São Pedro","country":"Cape Verde","name":"São Pedro Airport","code":"VXE","lat":16.8332,"lon":-25.0553},{"city":"Addis Ababa","country":"Ethiopia","name":"Addis Ababa Bole International Airport","code":"ADD","lat":8.97789,"lon":38.799301},{"city":"Arba Minch","country":"Ethiopia","name":"Arba Minch Airport","code":"AMH","lat":6.03939,"lon":37.5905},{"city":"Axum","country":"Ethiopia","name":"Axum Airport","code":"AXU","lat":14.1468,"lon":38.7728},{"city":"Bahir Dar","country":"Ethiopia","name":"Bahir Dar Airport","code":"BJR","lat":11.6081,"lon":37.321602},{"city":"Dire Dawa","country":"Ethiopia","name":"Aba Tenna Dejazmach Yilma International Airport","code":"DIR","lat":9.624699592590332,"lon":41.854198455810547},{"city":"Gambela","country":"Ethiopia","name":"Gambela Airport","code":"GMB","lat":8.12876,"lon":34.563099},{"city":"Azezo","country":"Ethiopia","name":"Gondar Airport","code":"GDQ","lat":12.5199,"lon":37.433998},{"city":"Gode","country":"Ethiopia","name":"Gode Airport","code":"GDE","lat":5.93513011932,"lon":43.5786018372},{"city":"Jijiga","country":"Ethiopia","name":"Wilwal International Airport","code":"JIJ","lat":9.3325,"lon":42.9121},{"city":"Jimma","country":"Ethiopia","name":"Jimma Airport","code":"JIM","lat":7.66609001159668,"lon":36.816600799560547},{"city":"Kebri Dahar","country":"Ethiopia","name":"Kebri Dahar Airport","code":"ABK","lat":6.732577,"lon":44.241339},{"city":"Hawassa","country":"Ethiopia","name":"Hawassa International Airport","code":"AWA","lat":7.099869,"lon":38.396187},{"city":"Mekele","country":"Ethiopia","name":"Alula Aba Nega Airport","code":"MQX","lat":13.4674,"lon":39.533501},{"city":"Asosa","country":"Ethiopia","name":"Asosa Airport","code":"ASO","lat":10.018500328063965,"lon":34.586299896240234},{"city":"Bujumbura","country":"Burundi","name":"Bujumbura Melchior Ndadaye International Airport","code":"BJM","lat":-3.32402,"lon":29.318501},{"city":"Hargeisa","country":"Somalia","name":"Egal International Airport","code":"HGA","lat":9.513207,"lon":44.082389},{"city":"Berbera","country":"Somalia","name":"Berbera Airport","code":"BBO","lat":10.385035,"lon":44.936723},{"city":"Mogadishu","country":"Somalia","name":"Aden Adde International Airport","code":"MGQ","lat":2.0144400596618652,"lon":45.3046989440918},{"city":"Djibouti City","country":"Djibouti","name":"Djibouti-Ambouli Airport","code":"JIB","lat":11.5473,"lon":43.1595},{"city":"El Alamein","country":"Egypt","name":"El Alamein International Airport","code":"DBB","lat":30.924324,"lon":28.46161},{"city":"El Arish","country":"Egypt","name":"El Arish International Airport","code":"AAC","lat":31.078565,"lon":33.836791},{"city":"Asyut","country":"Egypt","name":"Asyut International Airport","code":"ATZ","lat":27.050818,"lon":31.016309},{"city":"Alexandria","country":"Egypt","name":"Borj El Arab International Airport","code":"HBE","lat":30.93249,"lon":29.696437},{"city":"Abu Simbel","country":"Egypt","name":"Abu Simbel Airport","code":"ABS","lat":22.367657,"lon":31.609962},{"city":"Cairo","country":"Egypt","name":"Cairo International Airport","code":"CAI","lat":30.111534,"lon":31.396694},{"city":"Hurghada","country":"Egypt","name":"Hurghada International Airport","code":"HRG","lat":27.176776,"lon":33.796692},{"city":"Luxor","country":"Egypt","name":"Luxor International Airport","code":"LXR","lat":25.671037,"lon":32.706451},{"city":"Marsa Alam","country":"Egypt","name":"Marsa Alam International Airport","code":"RMF","lat":25.555548,"lon":34.59245},{"city":"Marsa Matruh","country":"Egypt","name":"Marsa Matruh International Airport","code":"MUH","lat":31.325464,"lon":27.221716},{"city":"Suhaj","country":"Egypt","name":"Sohag International Airport","code":"HMB","lat":26.342515,"lon":31.743017},{"city":"Sharm El Sheikh","country":"Egypt","name":"Sharm El Sheikh International Airport","code":"SSH","lat":27.977272,"lon":34.394717},{"city":"Aswan","country":"Egypt","name":"Aswan International Airport","code":"ASW","lat":23.968137,"lon":32.824445},{"city":"Al Jiza","country":"Egypt","name":"Sphinx International Airport","code":"SPX","lat":30.108179,"lon":30.895728},{"city":"Taba","country":"Egypt","name":"Taba International Airport","code":"TCP","lat":29.594496,"lon":34.775752},{"city":"Asmara","country":"Eritrea","name":"Asmara International Airport","code":"ASM","lat":15.291899681091309,"lon":38.910701751708984},{"city":"Assab","country":"Eritrea","name":"Assab International Airport","code":"ASA","lat":13.0718,"lon":42.645},{"city":"Juba","country":"South Sudan","name":"Juba International Airport","code":"JUB","lat":4.87201,"lon":31.601101},{"city":"Amboseli National Park","country":"Kenya","name":"Amboseli Airport","code":"ASV","lat":-2.645050048828125,"lon":37.253101348876953},{"city":"Eldoret","country":"Kenya","name":"Eldoret International Airport","code":"EDL","lat":0.40445798635482788,"lon":35.238899230957031},{"city":"Nairobi","country":"Kenya","name":"Jomo Kenyatta International Airport","code":"NBO","lat":-1.31923997402,"lon":36.9277992249},{"city":"Kisumu","country":"Kenya","name":"Kisumu Airport","code":"KIS","lat":-0.0861390009522438,"lon":34.728900909423828},{"city":"Lamu","country":"Kenya","name":"Manda Airport","code":"LAU","lat":-2.252431,"lon":40.912892},{"city":"Malindi","country":"Kenya","name":"Malindi Airport","code":"MYD","lat":-3.2293100357055664,"lon":40.101699829101563},{"city":"Mombasa","country":"Kenya","name":"Moi International Airport","code":"MBA","lat":-4.03483,"lon":39.5942},{"city":"Masai Mara","country":"Kenya","name":"Mara Serena Lodge Airstrip","code":"MRE","lat":-1.406111,"lon":35.008057},{"city":"Nanyuki","country":"Kenya","name":"Nanyuki Airport","code":"NYK","lat":-0.062399,"lon":37.041008},{"city":"Nairobi","country":"Kenya","name":"Nairobi Wilson Airport","code":"WIL","lat":-1.3217200040817261,"lon":36.814800262451172},{"city":"Wajir","country":"Kenya","name":"Wajir Airport","code":"WJR","lat":1.73324,"lon":40.091599},{"city":"Ghat","country":"Libya","name":"Ghat Airport","code":"GHT","lat":25.1455993652,"lon":10.142600059500001},{"city":"Kufra","country":"Libya","name":"Kufra Airport","code":"AKF","lat":24.178699493408203,"lon":23.313999176025391},{"city":"Benina","country":"Libya","name":"Benina International Airport","code":"BEN","lat":32.096802,"lon":20.269501},{"city":"Tripoli","country":"Libya","name":"Mitiga International Airport","code":"MJI","lat":32.89177,"lon":13.287878},{"city":"Al Albraq","country":"Libya","name":"Al Abraq International Airport","code":"LAQ","lat":32.7887,"lon":21.9643},{"city":"Sabha","country":"Libya","name":"Sabha Airport","code":"SEB","lat":26.992452,"lon":14.466162},{"city":"Kigali","country":"Rwanda","name":"Kigali International Airport","code":"KGL","lat":-1.96863,"lon":30.1395},{"city":"Kamembe","country":"Rwanda","name":"Kamembe Airport","code":"KME","lat":-2.4622399806976318,"lon":28.907899856567383},{"city":"Dongola","country":"Sudan","name":"Dongola Airport","code":"DOG","lat":19.153900146499996,"lon":30.430099487299998},{"city":"El Fasher","country":"Sudan","name":"El Fasher Airport","code":"ELF","lat":13.614899635314941,"lon":25.324600219726563},{"city":"Kassala","country":"Sudan","name":"Kassala Airport","code":"KSL","lat":15.387499809265137,"lon":36.328800201416016},{"city":"Nyala","country":"Sudan","name":"Nyala Airport","code":"UYL","lat":12.0535,"lon":24.9562},{"city":"El-Obeid","country":"Sudan","name":"El-Obeid Airport","code":"EBD","lat":13.1532,"lon":30.2327},{"city":"Port Sudan","country":"Sudan","name":"Port Sudan New International Airport","code":"PZU","lat":19.4335994720459,"lon":37.234100341796875},{"city":"Khartoum","country":"Sudan","name":"Khartoum International Airport","code":"KRT","lat":15.5895,"lon":32.5532},{"city":"Arusha","country":"Tanzania","name":"Arusha Airport","code":"ARK","lat":-3.3677899837493896,"lon":36.63330078125},{"city":"Dar es Salaam","country":"Tanzania","name":"Julius Nyerere International Airport","code":"DAR","lat":-6.87811,"lon":39.202599},{"city":"Dodoma","country":"Tanzania","name":"Dodoma Airport","code":"DOD","lat":-6.17044,"lon":35.752602},{"city":"Mbeya","country":"Tanzania","name":"Songwe Airport","code":"MBI","lat":-8.919942,"lon":33.273981},{"city":"Arusha","country":"Tanzania","name":"Kilimanjaro International Airport","code":"JRO","lat":-3.42941,"lon":37.074501},{"city":"Mtwara","country":"Tanzania","name":"Mtwara Airport","code":"MYW","lat":-10.336204,"lon":40.181997},{"city":"Mwanza","country":"Tanzania","name":"Mwanza Airport","code":"MWZ","lat":-2.4444899559020996,"lon":32.932701110839844},{"city":"Tanga","country":"Tanzania","name":"Tanga Airport","code":"TGT","lat":-5.09236,"lon":39.071201},{"city":"Zanzibar","country":"Tanzania","name":"Abeid Amani Karume International Airport","code":"ZNZ","lat":-6.22202,"lon":39.224899},{"city":"Arua","country":"Uganda","name":"Arua Airport","code":"RUA","lat":3.049152,"lon":30.911714},{"city":"Kampala","country":"Uganda","name":"Entebbe International Airport","code":"EBB","lat":0.042386,"lon":32.443501},{"city":"Gulu","country":"Uganda","name":"Gulu Airport","code":"ULU","lat":2.8055601119995117,"lon":32.271800994873047},{"city":"Soroti","country":"Uganda","name":"Soroti Airport","code":"SRT","lat":1.7276899814605713,"lon":33.622798919677734},{"city":"Bilogai","country":"Indonesia","name":"Bilorai Airport","code":"UGU","lat":-3.739503,"lon":137.031183},{"city":"Faizabad","country":"India","name":"Ayodhya Airport","code":"AYJ","lat":26.751283,"lon":82.155295},{"city":"Chipi","country":"India","name":"Sindhudurg Airport","code":"SDW","lat":16.002552,"lon":73.529846},{"city":"Navi Mumbai","country":"India","name":"Navi Mumbai International Airport","code":"NMI","lat":18.984597,"lon":73.065253},{"city":"Hollongi","country":"India","name":"Itanagar Donyi Polo Hollongi Airport","code":"HGI","lat":26.96683,"lon":93.638792},{"city":"Ambikapur","country":"India","name":"Maa Mahamaya Airport","code":"AHA","lat":22.98753,"lon":83.19612},{"city":"Boulder City","country":"United States","name":"Boulder City Municipal Airport","code":"BLD","lat":35.947161,"lon":-114.858799},{"city":"Allentown","country":"United States","name":"Lehigh Valley International Airport","code":"ABE","lat":40.651773,"lon":-75.442797},{"city":"Abilene","country":"United States","name":"Abilene Regional Airport","code":"ABI","lat":32.4113006592,"lon":-99.681900024400008},{"city":"Albuquerque","country":"United States","name":"Albuquerque International Sunport","code":"ABQ","lat":35.039976,"lon":-106.608925},{"city":"Aberdeen","country":"United States","name":"Aberdeen Regional Airport","code":"ABR","lat":45.449100494384766,"lon":-98.421798706054688},{"city":"Albany","country":"United States","name":"Southwest Georgia Regional Airport","code":"ABY","lat":31.532946,"lon":-84.196215},{"city":"Nantucket","country":"United States","name":"Nantucket Memorial Airport","code":"ACK","lat":41.25310135,"lon":-70.06020355},{"city":"Waco","country":"United States","name":"Waco Regional Airport","code":"ACT","lat":31.611299514770508,"lon":-97.230499267578125},{"city":"Arcata/Eureka","country":"United States","name":"California Redwood Coast-Humboldt County Airport","code":"ACV","lat":40.978101,"lon":-124.109},{"city":"Atlantic City","country":"United States","name":"Atlantic City International Airport","code":"ACY","lat":39.457599639892578,"lon":-74.577201843261719},{"city":"Alexandria","country":"United States","name":"Alexandria International Airport","code":"AEX","lat":31.3274,"lon":-92.549797},{"city":"Augusta","country":"United States","name":"Augusta Regional At Bush Field","code":"AGS","lat":33.3699,"lon":-81.9645},{"city":"Alliance","country":"United States","name":"Alliance Municipal Airport","code":"AIA","lat":42.052543,"lon":-102.803965},{"city":"Albany","country":"United States","name":"Albany International Airport","code":"ALB","lat":42.748298645019531,"lon":-73.80169677734375},{"city":"Waterloo","country":"United States","name":"Waterloo Regional Airport","code":"ALO","lat":42.557098388671875,"lon":-92.400299072265625},{"city":"Alamosa","country":"United States","name":"San Luis Valley Regional Airport/Bergman Field","code":"ALS","lat":37.434898,"lon":-105.866997},{"city":"Walla Walla","country":"United States","name":"Walla Walla Regional Airport","code":"ALW","lat":46.09489822,"lon":-118.288002},{"city":"Amarillo","country":"United States","name":"Rick Husband Amarillo International Airport","code":"AMA","lat":35.219398,"lon":-101.706001},{"city":"Altoona","country":"United States","name":"Altoona Blair County Airport","code":"AOO","lat":40.296398,"lon":-78.32},{"city":"Alpena","country":"United States","name":"Alpena County Regional Airport","code":"APN","lat":45.0780983,"lon":-83.56030273},{"city":"Watertown","country":"United States","name":"Watertown International Airport","code":"ART","lat":43.991901,"lon":-76.021698},{"city":"Aspen","country":"United States","name":"Aspen-Pitkin County Airport (Sardy Field)","code":"ASE","lat":39.223202,"lon":-106.869003},{"city":"Atlanta","country":"United States","name":"Hartsfield Jackson Atlanta International Airport","code":"ATL","lat":33.6367,"lon":-84.428101},{"city":"Appleton","country":"United States","name":"Appleton International Airport","code":"ATW","lat":44.258099,"lon":-88.519096},{"city":"Watertown","country":"United States","name":"Watertown Regional Airport","code":"ATY","lat":44.91400146,"lon":-97.15470123},{"city":"Augusta","country":"United States","name":"Augusta State Airport","code":"AUG","lat":44.320598602299995,"lon":-69.7973022461},{"city":"Austin","country":"United States","name":"Austin Bergstrom International Airport","code":"AUS","lat":30.197535,"lon":-97.662015},{"city":"Asheville","country":"United States","name":"Asheville Regional Airport","code":"AVL","lat":35.436199,"lon":-82.541801},{"city":"Wilkes-Barre/Scranton","country":"United States","name":"Wilkes Barre Scranton International Airport","code":"AVP","lat":41.338500976599995,"lon":-75.723396301300014},{"city":"Kalamazoo","country":"United States","name":"Kalamazoo Battle Creek International Airport","code":"AZO","lat":42.234901428222656,"lon":-85.5521011352539},{"city":"Branson","country":"United States","name":"Branson Airport","code":"BKG","lat":36.532082,"lon":-93.200544},{"city":"Hartford","country":"United States","name":"Bradley International Airport","code":"BDL","lat":41.93851,"lon":-72.688066},{"city":"Bedford","country":"United States","name":"Laurence G Hanscom Field","code":"BED","lat":42.470001,"lon":-71.289001},{"city":"Bradford","country":"United States","name":"Bradford Regional Airport","code":"BFD","lat":41.8031005859375,"lon":-78.640098571777344},{"city":"Scottsbluff","country":"United States","name":"Western Neb. Rgnl/William B. Heilig Airport","code":"BFF","lat":41.87400055,"lon":-103.5960007},{"city":"Seattle","country":"United States","name":"Boeing Field King County International Airport","code":"BFI","lat":47.529999,"lon":-122.302002},{"city":"Bakersfield","country":"United States","name":"Meadows Field","code":"BFL","lat":35.433601,"lon":-119.056999},{"city":"Binghamton","country":"United States","name":"Greater Binghamton/Edwin A Link field","code":"BGM","lat":42.20869827,"lon":-75.97979736},{"city":"Bangor","country":"United States","name":"Bangor International Airport","code":"BGR","lat":44.8074,"lon":-68.828102},{"city":"Bar Harbor","country":"United States","name":"Hancock County-Bar Harbor Airport","code":"BHB","lat":44.45000076,"lon":-68.3615036},{"city":"Birmingham","country":"United States","name":"Birmingham-Shuttlesworth International Airport","code":"BHM","lat":33.562901,"lon":-86.753502},{"city":"Bishop","country":"United States","name":"Eastern Sierra Regional Airport","code":"BIH","lat":37.3731,"lon":-118.363998},{"city":"Billings","country":"United States","name":"Billings Logan International Airport","code":"BIL","lat":45.807701,"lon":-108.542999},{"city":"Bismarck","country":"United States","name":"Bismarck Municipal Airport","code":"BIS","lat":46.772701263427734,"lon":-100.74600219726563},{"city":"Denver","country":"United States","name":"Rocky Mountain Metropolitan Airport","code":"BJC","lat":39.908798,"lon":-105.116997},{"city":"Beaver","country":"United States","name":"Raleigh County Memorial Airport","code":"BKW","lat":37.7873,"lon":-81.124199},{"city":"Bellingham","country":"United States","name":"Bellingham International Airport","code":"BLI","lat":48.792800903320313,"lon":-122.53800201416016},{"city":"Belleville","country":"United States","name":"Scott AFB/Midamerica Airport","code":"BLV","lat":38.5452,"lon":-89.835197},{"city":"Bloomington/Normal","country":"United States","name":"Central Illinois Regional Airport at Bloomington-Normal","code":"BMI","lat":40.4771,"lon":-88.915901},{"city":"Nashville","country":"United States","name":"Nashville International Airport","code":"BNA","lat":36.1245,"lon":-86.6782},{"city":"Boise","country":"United States","name":"Boise Air Terminal/Gowen Field","code":"BOI","lat":43.5644,"lon":-116.223},{"city":"Boston","country":"United States","name":"Logan International Airport","code":"BOS","lat":42.36197,"lon":-71.0079},{"city":"Beaumont/Port Arthur","country":"United States","name":"Jack Brooks Regional Airport","code":"BPT","lat":29.9508,"lon":-94.020699},{"city":"Brunswick","country":"United States","name":"Brunswick Golden Isles Airport","code":"BQK","lat":31.258801,"lon":-81.466499},{"city":"Brainerd","country":"United States","name":"Brainerd Lakes Regional Airport","code":"BRD","lat":46.402861,"lon":-94.129727},{"city":"Burlington","country":"United States","name":"Southeast Iowa Regional Airport","code":"BRL","lat":40.783199310302734,"lon":-91.125503540039063},{"city":"Brownsville","country":"United States","name":"Brownsville South Padre Island International Airport","code":"BRO","lat":25.90679931640625,"lon":-97.4259033203125},{"city":"Butte","country":"United States","name":"Bert Mooney Airport","code":"BTM","lat":45.954799652099609,"lon":-112.49700164794922},{"city":"Baton Rouge","country":"United States","name":"Baton Rouge Metropolitan Airport","code":"BTR","lat":30.533199,"lon":-91.149597},{"city":"South Burlington","country":"United States","name":"Burlington International Airport","code":"BTV","lat":44.471901,"lon":-73.153297},{"city":"Buffalo","country":"United States","name":"Buffalo Niagara International Airport","code":"BUF","lat":42.940498,"lon":-78.732201},{"city":"Burbank","country":"United States","name":"Hollywood Burbank Airport","code":"BUR","lat":34.197703,"lon":-118.356378},